;Unnamed: 0;statut_public_prive;nom_etablissement;type_etablissement;ecole_elementaire;section;adresse_1;code_postal;web;telephone;Latitude;Longitude;nombre_d_eleves;montessori;bilingue;religieux;nb_voie;rue;type;nb_voie_100;popup
0;0;Municipal;arbre sec;crèche collective;;creche;17 rue de l'arbre sec;75001;https://www.paris.fr/equipements/creche-collective-municipale-de-l-arbre-sec-3808;142601736;48.859763;2.3419822;46;non;non;non;17;rue de l'arbre sec;rue;117;<a href=https://www.paris.fr/equipements/creche-collective-municipale-de-l-arbre-sec-3808>arbre sec</a><br>Adresse: 17 rue de l'arbre sec<br>cp: 75001
1;1;Public;e.m.pu sourdiere ;Ecole;0.0;maternelle;27 rue de la sourdière;75001;https://www.education.gouv.fr/annuaire/075-paris/paris-1er-arrondissement/etab/empu-sourdiere-27-rue-de-la-sourdiere.html;142613116;48.8666996;2.3327196;103.0;non;non;non;27;rue de la sourdière;rue;127;<a href=https://www.education.gouv.fr/annuaire/075-paris/paris-1er-arrondissement/etab/empu-sourdiere-27-rue-de-la-sourdiere.html>e.m.pu sourdiere </a><br>Adresse: 27 rue de la sourdière<br>cp: 75001
2;2;Privé;people & baby caroussel;crèche collective;;creche;48 rue du louvre;75001;https://www.people-and-baby.com/creche/carrousel/99285437;;48.862635;2.3416909;;non;non;non;48;rue du louvre;rue;148;<a href=https://www.people-and-baby.com/creche/carrousel/99285437>people & baby caroussel</a><br>Adresse: 48 rue du louvre<br>cp: 75001
3;3;Municipal;prouvaires;halte-garderie;;creche;8 rue des prouvaires;75001;https://fr.mappy.com/poi/4f43b0fae4b0d0988900bfd5;144768770;48.8614768;2.3443728;25;non;non;non;8;rue des prouvaires;rue;108;<a href=https://fr.mappy.com/poi/4f43b0fae4b0d0988900bfd5>prouvaires</a><br>Adresse: 8 rue des prouvaires<br>cp: 75001
4;4;Municipal;rambuteau;crèche collective;;creche;132 rue rambuteau;75001;https://www.paris.fr/equipements/creche-collective-municipale-132-rue-rambuteau-3481;155343540;48.8629962;2.3464263;66;non;non;non;132;rue rambuteau;rue;232;<a href=https://www.paris.fr/equipements/creche-collective-municipale-132-rue-rambuteau-3481>rambuteau</a><br>Adresse: 132 rue rambuteau<br>cp: 75001
5;5;Public;e.m.pu st germain l'auxerrois ;Ecole;0.0;maternelle;6 rue saint germain l'auxerrois;75001;https://www.paris.fr/equipements/ecole-maternelle-saint-germain-l-auxerrois-388;142363328;48.8582092;2.3453865;145.0;non;non;non;6;rue saint germain l'auxerrois;rue;106;<a href=https://www.paris.fr/equipements/ecole-maternelle-saint-germain-l-auxerrois-388>e.m.pu st germain l'auxerrois </a><br>Adresse: 6 rue saint germain l'auxerrois<br>cp: 75001
6;6;Municipal;saint roch;crèche collective;;creche;26 rue saint roch;75001;https://www.paris.fr/equipements/creche-collective-municipale-saint-roch-16676;144500045;48.8660908;2.3328103;77;non;non;non;26;rue saint roch;rue;126;<a href=https://www.paris.fr/equipements/creche-collective-municipale-saint-roch-16676>saint roch</a><br>Adresse: 26 rue saint roch<br>cp: 75001
7;7;Privé;e.p.pr notre-dame-saint-roch (catholique);Ecole;1.0;maternelle;37 rue saint roch;75001;http://www.ecolesaintroch.fr;142612182;48.8661972;2.332731;414.0;non;non;catholique;37;rue saint roch;rue;137;<a href=http://www.ecolesaintroch.fr>e.p.pr notre-dame-saint-roch (catholique)</a><br>Adresse: 37 rue saint roch<br>cp: 75001
8;8;Public;e.p.pu beauregard ;Ecole;1.0;maternelle;5 rue beauregard;75002;https://www.education.gouv.fr/annuaire/075-paris/paris-2e-arrondissement/etab/eppu-beauregard-5-rue-beauregard.html;142369787;48.8692597;2.348308;181.0;non;non;non;5;rue beauregard;rue;105;<a href=https://www.education.gouv.fr/annuaire/075-paris/paris-2e-arrondissement/etab/eppu-beauregard-5-rue-beauregard.html>e.p.pu beauregard </a><br>Adresse: 5 rue beauregard<br>cp: 75002
9;9;Association;bellan crèche du mail;crèche collective;;creche;15 rue de cléry;75002;https://www.bellan.fr/page-template3?t=15;142609730;48.8678682;2.3456802;62;non;non;non;15;rue de cléry;rue;115;<a href=https://www.bellan.fr/page-template3?t=15>bellan crèche du mail</a><br>Adresse: 15 rue de cléry<br>cp: 75002
10;10;Municipal;la banque;halte-garderie;;creche;8 rue de la banque;75002;https://www.paris.fr/equipements/multi-accueil-halte-garderie-municipal-de-la-banque-1836;153297440;48.86672945;2.340469902714496;20;non;non;non;8;rue de la banque;rue;108;<a href=https://www.paris.fr/equipements/multi-accueil-halte-garderie-municipal-de-la-banque-1836>la banque</a><br>Adresse: 8 rue de la banque<br>cp: 75002
11;11;Privé;e.p.pr saint-sauveur (catholique);Ecole;1.0;maternelle;14 rue des petits carreaux;75002;https://www.ecolesaintsauveur.fr;145080773;48.8669123;2.347385;218.0;non;non;catholique;14;rue des petits carreaux;rue;114;<a href=https://www.ecolesaintsauveur.fr>e.p.pr saint-sauveur (catholique)</a><br>Adresse: 14 rue des petits carreaux<br>cp: 75002
12;12;Association;les petits pois;crèche parentale;;creche;17 rue du sentier;75002;www.lespetitspois.org;140131035;48.868697;2.3456089;20;non;non;non;17;rue du sentier;rue;117;<a href=www.lespetitspois.org>les petits pois</a><br>Adresse: 17 rue du sentier<br>cp: 75002
13;13;Association;la clairière;crèche multi-accueil;;creche;1 rue dussoubs;75002;www.laclairiere.org;142368246;48.8648332;2.3483445;18;non;non;non;1;rue dussoubs;rue;101;<a href=www.laclairiere.org>la clairière</a><br>Adresse: 1 rue dussoubs<br>cp: 75002
14;14;Public;e.m.pu dussoubs b 12 rue dussoubs;Ecole;0.0;maternelle;12 rue dussoubs;75002;https://fr.mappy.com/poi/50ae897684aeeac2b2c2ea8b;142363387;48.865118;2.3486586;124.0;non;non;non;12;rue dussoubs;rue;112;<a href=https://fr.mappy.com/poi/50ae897684aeeac2b2c2ea8b>e.m.pu dussoubs b 12 rue dussoubs</a><br>Adresse: 12 rue dussoubs<br>cp: 75002
15;15;Public;e.p.pu dussoubs 42 rue dussoubs;Ecole;1.0;maternelle;42 rue dussoubs;75002;https://fr.mappy.com/poi/50ace30d84aec628abe71a05;142364203;48.8671659;2.349682;249.0;non;non;non;42;rue dussoubs;rue;142;<a href=https://fr.mappy.com/poi/50ace30d84aec628abe71a05>e.p.pu dussoubs 42 rue dussoubs</a><br>Adresse: 42 rue dussoubs<br>cp: 75002
16;16;Privé;babilou feydeau;crèche d'entreprise;;creche;15 rue feydeau;75002;https://www.babilou.fr/creches/babilou-paris-feydeau;142951284;48.8698417;2.3402534;61;non;non;non;15;rue feydeau;rue;115;<a href=https://www.babilou.fr/creches/babilou-paris-feydeau>babilou feydeau</a><br>Adresse: 15 rue feydeau<br>cp: 75002
17;17;Municipal;greneta;crèche collective;;creche;44 rue greneta;75002;https://www.paris.fr/equipements/multi-accueil-creche-collective-municipale-greneta-2063;140264282;48.8652128;2.3513397;22;non;non;non;44;rue greneta;rue;144;<a href=https://www.paris.fr/equipements/multi-accueil-creche-collective-municipale-greneta-2063>greneta</a><br>Adresse: 44 rue greneta<br>cp: 75002
18;18;Municipal;thorel;crèche collective;;creche;10 rue thorel;75002;https://www.paris.fr/equipements/creche-collective-municipale-thorel-2061;142334999;48.8697016;2.349068;88;non;non;non;10;rue thorel;rue;110;<a href=https://www.paris.fr/equipements/creche-collective-municipale-thorel-2061>thorel</a><br>Adresse: 10 rue thorel<br>cp: 75002
19;19;Public;e.m.pu vivienne ;Ecole;0.0;maternelle;11 rue vivienne;75002;https://www.education.gouv.fr/annuaire/075-paris/paris-2e-arrondissement/etab/empu-vivienne-11-rue-vivienne.html;142609721;48.8694158;2.3403712;109.0;non;non;non;11;rue vivienne;rue;111;<a href=https://www.education.gouv.fr/annuaire/075-paris/paris-2e-arrondissement/etab/empu-vivienne-11-rue-vivienne.html>e.m.pu vivienne </a><br>Adresse: 11 rue vivienne<br>cp: 75002
20;20;Privé;crescendo enfance et decouverte;crèche collective;;creche;35 boulevard du temple;75003;https://www.crescendo.asso.fr/enfance-et-decouvertes;142713376;48.8657303;2.364897;20;non;non;non;35;boulevard du temple;boulevard;135;<a href=https://www.crescendo.asso.fr/enfance-et-decouvertes>crescendo enfance et decouverte</a><br>Adresse: 35 boulevard du temple<br>cp: 75003
21;21;Privé;e.m.pr douces maternelles saint michel (bilingue);Ecole;0.0;maternelle;84 boulevard saint michel;75003;http://www.doucesmaternelles.com;662949242;48.8422833;2.3378411;;non;oui;non;84;boulevard saint michel;boulevard;184;<a href=http://www.doucesmaternelles.com>e.m.pr douces maternelles saint michel (bilingue)</a><br>Adresse: 84 boulevard saint michel<br>cp: 75003
22;22;Municipal;brantôme;crèche collective;;creche;21 rue brantôme;75003;https://www.paris.fr/equipements/creche-collective-municipale-brantome-3754;140291660;48.8625473;2.3529594;88;non;non;non;21;rue brantôme;rue;121;<a href=https://www.paris.fr/equipements/creche-collective-municipale-brantome-3754>brantôme</a><br>Adresse: 21 rue brantôme<br>cp: 75003
23;23;Public;e.m.pu chapon ;Ecole;0.0;maternelle;25 rue chapon;75003;https://fr.mappy.com/poi/53224fb2e4b04129c76a829b;148872786;48.8636283;2.3551764;137.0;non;non;non;25;rue chapon;rue;125;<a href=https://fr.mappy.com/poi/53224fb2e4b04129c76a829b>e.m.pu chapon </a><br>Adresse: 25 rue chapon<br>cp: 75003
24;24;Privé;people & baby secret d’enfants (bilingue);micro-crèche;;creche;5 rue charlot;75003;https://www.people-and-baby.com/creche/secrets-d-enfants/993169;;48.8609087;2.3602133;;non;oui;non;5;rue charlot;rue;105;<a href=https://www.people-and-baby.com/creche/secrets-d-enfants/993169>people & baby secret d’enfants (bilingue)</a><br>Adresse: 5 rue charlot<br>cp: 75003
25;25;Privé;chaperons les malicieux de conté;micro-crèche;;creche;3 rue conté;75003;https://www.lpcr.fr/en/creches/paris-3e/201;;48.865845;2.3562876;10;non;non;non;3;rue conté;rue;103;<a href=https://www.lpcr.fr/en/creches/paris-3e/201>chaperons les malicieux de conté</a><br>Adresse: 3 rue conté<br>cp: 75003
26;26;Municipal;la perle;crèche collective;;creche;16 rue de la perle;75003;https://www.paris.fr/equipements/creche-collective-municipale-de-la-perle-2069;148873187;48.8596025;2.3616628;55;non;non;non;16;rue de la perle;rue;116;<a href=https://www.paris.fr/equipements/creche-collective-municipale-de-la-perle-2069>la perle</a><br>Adresse: 16 rue de la perle<br>cp: 75003
27;27;Public;e.m.pu perle ;Ecole;0.0;maternelle;7 rue de la perle;75003;https://www.pagesjaunes.fr/pros/50139630;142781621;48.8595124;2.3613707;96.0;non;non;non;7;rue de la perle;rue;107;<a href=https://www.pagesjaunes.fr/pros/50139630>e.m.pu perle </a><br>Adresse: 7 rue de la perle<br>cp: 75003
28;28;Privé;abc les temps des ours (bilingue);crèche collective;;creche;8 rue de montmorency;75003;https://www.abcpuericulture.com/fr/creche-collective-paris/le-tempsdes-ours/24;142710147;48.8628003;2.3567558154422823;47;non;oui;non;8;rue de montmorency;rue;108;<a href=https://www.abcpuericulture.com/fr/creche-collective-paris/le-tempsdes-ours/24>abc les temps des ours (bilingue)</a><br>Adresse: 8 rue de montmorency<br>cp: 75003
29;29;Municipal;turbigot;crèche familiale;;creche;50 rue de turbigo;75003;https://www.paris.fr/equipements/creche-familiale-municipale-de-turbigo-2325;144780772;48.8665997;2.3610783;46;non;non;non;50;rue de turbigo;rue;150;<a href=https://www.paris.fr/equipements/creche-familiale-municipale-de-turbigo-2325>turbigot</a><br>Adresse: 50 rue de turbigo<br>cp: 75003
30;30;Public;e.m.pu turenne ;Ecole;0.0;maternelle;52 rue de turenne;75003;https://www.ac-paris.fr/portail/jcms/2565_Spot/e-m-pu-turenne-52-spot;148872844;48.8584253;2.3646;135.0;non;non;non;52;rue de turenne;rue;152;<a href=https://www.ac-paris.fr/portail/jcms/2565_Spot/e-m-pu-turenne-52-spot>e.m.pu turenne </a><br>Adresse: 52 rue de turenne<br>cp: 75003
31;31;Municipal;gravilliers;halte-garderie;;creche;24 rue des gravilliers;75003;https://www.paris.fr/equipements/halte-garderie-municipale-des-gravilliers-1844;147874924;48.8638663;2.3567501;15;non;non;non;24;rue des gravilliers;rue;124;<a href=https://www.paris.fr/equipements/halte-garderie-municipale-des-gravilliers-1844>gravilliers</a><br>Adresse: 24 rue des gravilliers<br>cp: 75003
32;32;Privé;chaperons les malicieux des haudriettes;crèche d'entreprise;;creche;3 rue des haudriettes;75003;https://www.lpcr.fr/en/creches/paris-3e/186;;48.8614421;2.3577515;21;non;non;non;3;rue des haudriettes;rue;103;<a href=https://www.lpcr.fr/en/creches/paris-3e/186>chaperons les malicieux des haudriettes</a><br>Adresse: 3 rue des haudriettes<br>cp: 75003
33;33;Privé;crescendo les minimes;;;creche;35 rue des tournelles;75003;https://www.crescendo.asso.fr/multi-accueil-les-minimes;;48.8571676;2.3672777;;non;non;non;35;rue des tournelles;rue;135;<a href=https://www.crescendo.asso.fr/multi-accueil-les-minimes>crescendo les minimes</a><br>Adresse: 35 rue des tournelles<br>cp: 75003
34;34;Privé;e.p.pr sainte-genevieve-du-marais (catholique);Ecole;1.0;maternelle;9 rue du foin;75003;http://www.saintegenevievedumarais.fr;142726143;48.8569463;2.3648093;256.0;non;non;catholique;9;rue du foin;rue;109;<a href=http://www.saintegenevievedumarais.fr>e.p.pr sainte-genevieve-du-marais (catholique)</a><br>Adresse: 9 rue du foin<br>cp: 75003
35;35;Association;les jeunes heures;crèche parentale;;creche;4 rue du pas de la mule;75003;https://www.paris.fr/equipements/creche-parentale-les-jeunes-heures-associative-3612;148870671;48.8559141;2.3677315;8;non;non;non;4;rue du pas de la mule;rue;104;<a href=https://www.paris.fr/equipements/creche-parentale-les-jeunes-heures-associative-3612>les jeunes heures</a><br>Adresse: 4 rue du pas de la mule<br>cp: 75003
36;36;Privé;crescendo charlot;crèche collective;;creche;10 rue dupetit thouars;75003;https://www.crescendo.asso.fr/multi-accueil-charlot;148870218;48.8652742;2.3621838;33;non;non;non;10;rue dupetit thouars;rue;110;<a href=https://www.crescendo.asso.fr/multi-accueil-charlot>crescendo charlot</a><br>Adresse: 10 rue dupetit thouars<br>cp: 75003
37;37;Privé;people & baby rue du temple;micro-crèche;;creche;154 rue du temple;75003;https://www.people-and-baby.com/creche/rue-du-temple/99323418;;48.8672856;2.363084;;non;non;non;154;rue du temple;rue;254;<a href=https://www.people-and-baby.com/creche/rue-du-temple/99323418>people & baby rue du temple</a><br>Adresse: 154 rue du temple<br>cp: 75003
38;38;Privé;baboune temple;micro-crèche;;creche;6 rue notre dame de nazareth;75003;https://baboune.fr/portfolio-item/baboune-temple-75003-paris;183817709;48.8670049;2.3617684;10;non;non;non;6;rue notre dame de nazareth;rue;106;<a href=https://baboune.fr/portfolio-item/baboune-temple-75003-paris>baboune temple</a><br>Adresse: 6 rue notre dame de nazareth<br>cp: 75003
39;39;Privé;chaperons les artistes malicieux;micro-crèche;;creche;75 rue notre dame de nazareth;75003;https://www.lpcr.fr/en/creches/paris-3e/174;;48.8679996;2.3543215;10;non;non;non;75;rue notre dame de nazareth;rue;175;<a href=https://www.lpcr.fr/en/creches/paris-3e/174>chaperons les artistes malicieux</a><br>Adresse: 75 rue notre dame de nazareth<br>cp: 75003
40;40;Privé;e.p.pr montessori (montessori, bilingue);Ecole;1.0;maternelle;3 rue papin;75003;https://ecolemontessori-ruepapin.org;649178574;48.8667842;2.3538265;;oui;oui;non;3;rue papin;rue;103;<a href=https://ecolemontessori-ruepapin.org>e.p.pr montessori (montessori, bilingue)</a><br>Adresse: 3 rue papin<br>cp: 75003
41;41;Public;e.m.pu paul dubois 6 rue paul dubois;Ecole;0.0;maternelle;6 rue paul dubois;75003;https://fr.mappy.com/poi/5322511ae4b04129c76a82ca;148876882;48.8653399;2.3613532;119.0;non;non;non;6;rue paul dubois;rue;106;<a href=https://fr.mappy.com/poi/5322511ae4b04129c76a82ca>e.m.pu paul dubois 6 rue paul dubois</a><br>Adresse: 6 rue paul dubois<br>cp: 75003
42;42;Municipal;rambuteau;crèche collective;;creche;6 rue rambuteau;75003;https://www.paris.fr/equipements/creche-collective-municipale-6-rue-rambuteau-saint-avoye-3755;144788480;48.8603013;2.3564025;66;non;non;non;6;rue rambuteau;rue;106;<a href=https://www.paris.fr/equipements/creche-collective-municipale-6-rue-rambuteau-saint-avoye-3755>rambuteau</a><br>Adresse: 6 rue rambuteau<br>cp: 75003
43;43;Privé;liveli rondes et comptines;crèche collective;;creche;6 rue roger verlomme;75003;https://www.liveli.fr/creches/rondes-et-comptines;148040006;48.8568468;2.3668606;;non;non;non;6;rue roger verlomme;rue;106;<a href=https://www.liveli.fr/creches/rondes-et-comptines>liveli rondes et comptines</a><br>Adresse: 6 rue roger verlomme<br>cp: 75003
44;44;Public;e.p.pu st martin ;Ecole;1.0;maternelle;211 rue saint martin;75003;https://fr.mappy.com/poi/5244e01e84aeeed56cd2b288;148875048;48.868692;2.355405;198.0;non;non;non;211;rue saint martin;rue;311;<a href=https://fr.mappy.com/poi/5244e01e84aeeed56cd2b288>e.p.pu st martin </a><br>Adresse: 211 rue saint martin<br>cp: 75003
45;45;Privé;crescendo martin;crèche collective;;creche;220 rue saint martin;75003;https://www.crescendo.asso.fr/multi-accueil-martin;144786508;48.8672804;2.3545663;;non;non;non;220;rue saint martin;rue;320;<a href=https://www.crescendo.asso.fr/multi-accueil-martin>crescendo martin</a><br>Adresse: 220 rue saint martin<br>cp: 75003
46;46;Privé;chaperons les malicieux de sainte-apolline;micro-crèche;;creche;7 rue sainte apolline;75003;https://www.lpcr.fr/fr/creches/paris/196;;48.8687525;2.3547221;10;non;non;non;7;rue sainte apolline;rue;107;<a href=https://www.lpcr.fr/fr/creches/paris/196>chaperons les malicieux de sainte-apolline</a><br>Adresse: 7 rue sainte apolline<br>cp: 75003
47;47;Public;e.p.pu vaucanson ;Ecole;1.0;maternelle;6 rue vaucanson;75003;https://fr.mappy.com/poi/532108bbe4b07c1cacaf82a4;142775528;48.8671172;2.356791;192.0;non;non;non;6;rue vaucanson;rue;106;<a href=https://fr.mappy.com/poi/532108bbe4b07c1cacaf82a4>e.p.pu vaucanson </a><br>Adresse: 6 rue vaucanson<br>cp: 75003
48;48;Privé;crescendo morland;;;creche;17 boulevard morland;75004;https://www.crescendo.asso.fr/morland;;48.8495406;2.3640071;;non;non;non;17;boulevard morland;boulevard;117;<a href=https://www.crescendo.asso.fr/morland>crescendo morland</a><br>Adresse: 17 boulevard morland<br>cp: 75004
49;49;Privé;babilou paris henri iv;crèche collective;;creche;10 quai henri iv;75004;https://www.babilou.fr/creches/babilou-paris-henri-iv;;48.8488191;2.3626394;22;non;non;non;10;quai henri iv;quai;110;<a href=https://www.babilou.fr/creches/babilou-paris-henri-iv>babilou paris henri iv</a><br>Adresse: 10 quai henri iv<br>cp: 75004
50;50;Association;le figuier;crèche collective;;creche;6 rue de l'ave maria;75004;https://www.paris.fr/equipements/creche-collective-village-saint-paul-associative-3512;142777359;48.8527803;2.3604683;30;non;non;non;6;rue de l'ave maria;rue;106;<a href=https://www.paris.fr/equipements/creche-collective-village-saint-paul-associative-3512>le figuier</a><br>Adresse: 6 rue de l'ave maria<br>cp: 75004
51;51;Municipal;moussy;crèche collective;;creche;6 rue de moussy;75004;https://www.paris.fr/equipements/creche-collective-municipale-de-moussy-410;148874282;48.8574406;2.3555656;66;non;non;non;6;rue de moussy;rue;106;<a href=https://www.paris.fr/equipements/creche-collective-municipale-de-moussy-410>moussy</a><br>Adresse: 6 rue de moussy<br>cp: 75004
52;52;Public;e.p.pu moussy ;Ecole;1.0;maternelle;9 rue de moussy;75004;https://www.education.gouv.fr/annuaire/075-paris/paris-4e-arrondissement/etab/eppu-moussy-9-rue-de-moussy.html;142776512;48.8577359;2.3556262;117.0;non;non;non;9;rue de moussy;rue;109;<a href=https://www.education.gouv.fr/annuaire/075-paris/paris-4e-arrondissement/etab/eppu-moussy-9-rue-de-moussy.html>e.p.pu moussy </a><br>Adresse: 9 rue de moussy<br>cp: 75004
53;53;Municipal;ormes;crèche collective;;creche;9 rue des barres;75004;https://www.paris.fr/equipements/creche-collective-municipale-des-barres-408;142727381;48.8552208;2.3549252;55;non;non;non;9;rue des barres;rue;109;<a href=https://www.paris.fr/equipements/creche-collective-municipale-des-barres-408>ormes</a><br>Adresse: 9 rue des barres<br>cp: 75004
54;54;Municipal;blancs manteaux;crèche collective;;creche;21 rue des blancs manteaux;75004;https://www.paris.fr/equipements/creche-des-blancs-manteaux-443;144543495;48.8588559;2.3564526;;non;non;non;21;rue des blancs manteaux;rue;121;<a href=https://www.paris.fr/equipements/creche-des-blancs-manteaux-443>blancs manteaux</a><br>Adresse: 21 rue des blancs manteaux<br>cp: 75004
55;55;Public;e.p.pu hosp. st gervais ;Ecole;1.0;maternelle;10 rue des hospitalières saint gervais;75004;https://fr.mappy.com/poi/53224f93e4b04129c76a8293;148872685;48.8579194;2.3591296;153.0;non;non;non;10;rue des hospitalières saint gervais;rue;110;<a href=https://fr.mappy.com/poi/53224f93e4b04129c76a8293>e.p.pu hosp. st gervais </a><br>Adresse: 10 rue des hospitalières saint gervais<br>cp: 75004
56;56;Municipal;jardins st paul;crèche familiale;;creche;22 rue des jardins saint paul;75004;https://www.paris.fr/equipements/multi-accueil-collectif-et-familial-municipal-des-jardins-saint-paul-429;142778609;48.8536526;2.3608626;36;non;non;non;22;rue des jardins saint paul;rue;122;<a href=https://www.paris.fr/equipements/multi-accueil-collectif-et-familial-municipal-des-jardins-saint-paul-429>jardins st paul</a><br>Adresse: 22 rue des jardins saint paul<br>cp: 75004
57;57;Public;e.p.pu tournelles ;Ecole;1.0;maternelle;21 rue des tournelles;75004;https://www.education.gouv.fr/annuaire/075-paris/paris-4e-arrondissement/etab/eppu-tournelles-21-rue-des-tournelles.html;148872775;48.8537211;2.3673311;190.0;non;non;non;21;rue des tournelles;rue;121;<a href=https://www.education.gouv.fr/annuaire/075-paris/paris-4e-arrondissement/etab/eppu-tournelles-21-rue-des-tournelles.html>e.p.pu tournelles </a><br>Adresse: 21 rue des tournelles<br>cp: 75004
58;58;Privé;e.p.pr saint jean gabriel (catholique);Ecole;1.0;maternelle;6 rue du cloître saint merri;75004;https://www.saintjeangabriel.net;142784481;48.8589442;2.3517358;185.0;non;non;catholique;6;rue du cloître saint merri;rue;106;<a href=https://www.saintjeangabriel.net>e.p.pr saint jean gabriel (catholique)</a><br>Adresse: 6 rue du cloître saint merri<br>cp: 75004
59;59;Public;e.p.pu fauconnier ;Ecole;1.0;maternelle;4 rue du fauconnier;75004;https://www.education.gouv.fr/annuaire/075-paris/paris-4e-arrondissement/etab/eppu-fauconnier-4-rue-du-fauconnier.html;142728887;48.8536445;2.3596405;215.0;non;non;non;4;rue du fauconnier;rue;104;<a href=https://www.education.gouv.fr/annuaire/075-paris/paris-4e-arrondissement/etab/eppu-fauconnier-4-rue-du-fauconnier.html>e.p.pu fauconnier </a><br>Adresse: 4 rue du fauconnier<br>cp: 75004
60;60;Privé;e.p.pr saint louis (catholique);Ecole;1.0;maternelle;10 rue du petit musc;75004;https://www.education.gouv.fr/annuaire/075-paris/paris-4e-arrondissement/etab/eppr-saint-louis-10-rue-du-petit-musc.html;142717832;48.8517708;2.3630672;;non;non;catholique;10;rue du petit musc;rue;110;<a href=https://www.education.gouv.fr/annuaire/075-paris/paris-4e-arrondissement/etab/eppr-saint-louis-10-rue-du-petit-musc.html>e.p.pr saint louis (catholique)</a><br>Adresse: 10 rue du petit musc<br>cp: 75004
61;61;Privé;e.m.pr douces maternelles bastille (bilingue);Ecole;0.0;maternelle;21 rue du petit musc;75004;http://www.doucesmaternelles.com;148040568;48.8526107;2.3640561;;non;oui;non;21;rue du petit musc;rue;121;<a href=http://www.doucesmaternelles.com>e.m.pr douces maternelles bastille (bilingue)</a><br>Adresse: 21 rue du petit musc<br>cp: 75004
62;62;Privé;e.p.pr massillon (catholique);Ecole;1.0;maternelle;9 rue du petit musc;75004;http://www.ecolemassillon.com;153019160;48.8520369;2.3631431;316.0;non;non;catholique;9;rue du petit musc;rue;109;<a href=http://www.ecolemassillon.com>e.p.pr massillon (catholique)</a><br>Adresse: 9 rue du petit musc<br>cp: 75004
63;63;Municipal;charlemagne;crèche collective;;creche;8 rue eginhard;75004;https://www.paris.fr/equipements/creche-collective-municipale-eginhard-charlemagne-417;144788120;48.8540685;2.3616144;66;non;non;non;8;rue eginhard;rue;108;<a href=https://www.paris.fr/equipements/creche-collective-municipale-eginhard-charlemagne-417>charlemagne</a><br>Adresse: 8 rue eginhard<br>cp: 75004
64;64;Association;marais;crèche parentale;;creche;8 rue françois miron;75004;https://www.paris.fr/equipements/creche-parentale-du-marais-7591;142771902;48.8558053;2.354991;12;non;non;non;8;rue françois miron;rue;108;<a href=https://www.paris.fr/equipements/creche-parentale-du-marais-7591>marais</a><br>Adresse: 8 rue françois miron<br>cp: 75004
65;65;Association;cité st martin;crèche familiale;;creche;2 rue mornay;75004;https://www.paris.fr/equipements/creche-familiale-cite-st-martin-associative-3579;144618379;48.8495519;2.3661367;24;non;non;non;2;rue mornay;rue;102;<a href=https://www.paris.fr/equipements/creche-familiale-cite-st-martin-associative-3579>cité st martin</a><br>Adresse: 2 rue mornay<br>cp: 75004
66;66;Public;e.m.pu poulletier ;Ecole;0.0;maternelle;18 rue poulletier;75004;https://www.education.gouv.fr/annuaire/075-paris/paris-4e-arrondissement/etab/empu-poulletier-18-rue-poulletier.html;143549454;48.8514729;2.3583006;104.0;non;non;non;18;rue poulletier;rue;118;<a href=https://www.education.gouv.fr/annuaire/075-paris/paris-4e-arrondissement/etab/empu-poulletier-18-rue-poulletier.html>e.m.pu poulletier </a><br>Adresse: 18 rue poulletier<br>cp: 75004
67;67;Public;e.p.pu st merri ;Ecole;1.0;maternelle;11 rue saint merri;75004;https://www.education.gouv.fr/annuaire/075-paris/paris-4e-arrondissement/etab/eppu-st-merri-11-rue-saint-merri.html;148872627;48.8593054;2.352976;229.0;non;non;non;11;rue saint merri;rue;111;<a href=https://www.education.gouv.fr/annuaire/075-paris/paris-4e-arrondissement/etab/eppu-st-merri-11-rue-saint-merri.html>e.p.pu st merri </a><br>Adresse: 11 rue saint merri<br>cp: 75004
68;68;Privé;perlimpinpin port-royal;;;creche;12 boulevard de port royal;75005;https://lescrechesperlimpinpin.com/micro-creche-port-royal;;48.8371683;2.3499633;;non;non;non;12;boulevard de port royal;boulevard;112;<a href=https://lescrechesperlimpinpin.com/micro-creche-port-royal>perlimpinpin port-royal</a><br>Adresse: 12 boulevard de port royal<br>cp: 75005
69;69;Municipal;port royal;crèche collective;;creche;88 boulevard de port royal;75005;https://www.paris.fr/equipements/creche-collective-municipale-de-port-royal-4eme-etage-2314;143257355;48.8393849;2.3378641;50;non;non;non;88;boulevard de port royal;boulevard;188;<a href=https://www.paris.fr/equipements/creche-collective-municipale-de-port-royal-4eme-etage-2314>port royal</a><br>Adresse: 88 boulevard de port royal<br>cp: 75005
70;70;Privé;e.m.pr douce maternelle broca (bilingue);Ecole;0.0;maternelle;52 rue broca;75005;http://www.doucesmaternelles.com;661949242;48.8382224;2.3482182;;non;oui;non;52;rue broca;rue;152;<a href=http://www.doucesmaternelles.com>e.m.pr douce maternelle broca (bilingue)</a><br>Adresse: 52 rue broca<br>cp: 75005
71;71;Public;e.m.pu buffon ;Ecole;0.0;maternelle;15 rue buffon;75005;https://fr.mappy.com/poi/50acb9cd84aec85bd0b88825;147070039;48.842598;2.3620308;166.0;non;non;non;15;rue buffon;rue;115;<a href=https://fr.mappy.com/poi/50acb9cd84aec85bd0b88825>e.m.pu buffon </a><br>Adresse: 15 rue buffon<br>cp: 75005
72;72;Municipal;cencier;crèche collective;;creche;11 rue censier;75005;https://www.paris.fr/equipements/creche-collective-municipale-censier-2071;143360661;48.8408204;2.3549864;66;non;non;non;11;rue censier;rue;111;<a href=https://www.paris.fr/equipements/creche-collective-municipale-censier-2071>cencier</a><br>Adresse: 11 rue censier<br>cp: 75005
73;73;Association;croix saint simon tambour et trompettes;crèche multi-accueil;;creche;31 rue claude bernard;75005;https://www.croix-saint-simon.org/multi-accueil-tambour-trompette;143369818;48.839525;2.3476942;41;non;non;non;31;rue claude bernard;rue;131;<a href=https://www.croix-saint-simon.org/multi-accueil-tambour-trompette>croix saint simon tambour et trompettes</a><br>Adresse: 31 rue claude bernard<br>cp: 75005
74;74;Public;e.m.pu cujas ;Ecole;0.0;maternelle;23 rue cujas;75005;https://fr.mappy.com/poi/5b5d284d0351d164ab2c205d;143546687;48.8480579;2.3419089;79.0;non;non;non;23;rue cujas;rue;123;<a href=https://fr.mappy.com/poi/5b5d284d0351d164ab2c205d>e.m.pu cujas </a><br>Adresse: 23 rue cujas<br>cp: 75005
75;75;Municipal;l'epée de bois;crèche collective;;creche;5 rue de l'epée de bois;75005;https://www.paris.fr/equipements/creche-collective-epee-de-bois-17370;143313907;48.8415522;2.3511952;20;non;non;non;5;rue de l'epée de bois;rue;105;<a href=https://www.paris.fr/equipements/creche-collective-epee-de-bois-17370>l'epée de bois</a><br>Adresse: 5 rue de l'epée de bois<br>cp: 75005
76;76;Public;e.m.pu poissy ;Ecole;0.0;maternelle;27 rue de poissy;75005;https://fr.mappy.com/poi/53209c8ce4b07c1cacaf69af;143269242;48.8485937;2.3522635;121.0;non;non;non;27;rue de poissy;rue;127;<a href=https://fr.mappy.com/poi/53209c8ce4b07c1cacaf69af>e.m.pu poissy </a><br>Adresse: 27 rue de poissy<br>cp: 75005
77;77;Privé;e.p.pr sainte-catherine (catholique);Ecole;1.0;maternelle;13 rue des bernardins;75005;http://www.ecolesaintecatherine.com;143255789;48.8503024;2.3508654;169.0;non;non;catholique;13;rue des bernardins;rue;113;<a href=http://www.ecolesaintecatherine.com>e.p.pr sainte-catherine (catholique)</a><br>Adresse: 13 rue des bernardins<br>cp: 75005
78;78;Association;sainte lucie;crèche collective;;creche;13 rue des bernardins;75005;https://www.fmdc.fr/nos-services/creche-sainte-lucie;143541237;48.8503024;2.3508654;66;non;non;non;13;rue des bernardins;rue;113;<a href=https://www.fmdc.fr/nos-services/creche-sainte-lucie>sainte lucie</a><br>Adresse: 13 rue des bernardins<br>cp: 75005
79;79;Public;e.m.pu lyonnais ;Ecole;0.0;maternelle;22 rue des lyonnais;75005;https://www.education.gouv.fr/annuaire/075-paris/paris-5e-arrondissement/etab/empu-lyonnais-22-rue-des-lyonnais.html;147070429;48.8385115;2.346465;152.0;non;non;non;22;rue des lyonnais;rue;122;<a href=https://www.education.gouv.fr/annuaire/075-paris/paris-5e-arrondissement/etab/empu-lyonnais-22-rue-des-lyonnais.html>e.m.pu lyonnais </a><br>Adresse: 22 rue des lyonnais<br>cp: 75005
80;80;Municipal;lyonnais;crèche collective;;creche;7 rue des lyonnais;75005;https://www.paris.fr/equipements/creche-collective-municipale-des-lyonnais-2101;145872652;48.8382442;2.3466614;50;non;non;non;7;rue des lyonnais;rue;107;<a href=https://www.paris.fr/equipements/creche-collective-municipale-des-lyonnais-2101>lyonnais</a><br>Adresse: 7 rue des lyonnais<br>cp: 75005
81;81;Municipal;prêtres st séverin;crèche collective;;creche;12 rue des prêtres saint séverin;75005;https://www.paris.fr/equipements/creche-collective-municipale-des-pretres-saint-severin-2079;143254151;48.8518975;2.3449608;72;non;non;non;12;rue des prêtres saint séverin;rue;112;<a href=https://www.paris.fr/equipements/creche-collective-municipale-des-pretres-saint-severin-2079>prêtres st séverin</a><br>Adresse: 12 rue des prêtres saint séverin<br>cp: 75005
82;82;Privé;e.p.pr sainte-genevieve (catholique);Ecole;1.0;maternelle;65 rue du cardinal lemoine;75005;http://www.ecole-ste-genevieve.net;143541141;48.8458743;2.3506405;186.0;non;non;catholique;65;rue du cardinal lemoine;rue;165;<a href=http://www.ecole-ste-genevieve.net>e.p.pr sainte-genevieve (catholique)</a><br>Adresse: 65 rue du cardinal lemoine<br>cp: 75005
83;83;Privé;e.p.pr the bilingual montessori school of paris (montessori, bilingue);Ecole;0.0;maternelle;28 rue du fer à moulin;75005;https://montessori-paris.com/our-schools/28-rue-du-fer-a-moulin;145654961;48.8389992;2.353389;;oui;oui;non;28;rue du fer à moulin;rue;128;<a href=https://montessori-paris.com/our-schools/28-rue-du-fer-a-moulin>e.p.pr the bilingual montessori school of paris (montessori, bilingue)</a><br>Adresse: 28 rue du fer à moulin<br>cp: 75005
84;84;Privé;the bilingual montessori school of paris (montessori, bilingue);;;creche;28 rue du fer à moulin;75005;https://montessori-paris.com/our-schools/28-rue-du-fer-a-moulin;;48.8389992;2.353389;;oui;oui;non;28;rue du fer à moulin;rue;128;<a href=https://montessori-paris.com/our-schools/28-rue-du-fer-a-moulin>the bilingual montessori school of paris (montessori, bilingue)</a><br>Adresse: 28 rue du fer à moulin<br>cp: 75005
85;85;Public;e.m.pu sommerard ;Ecole;0.0;maternelle;10 rue du sommerard;75005;https://www.education.gouv.fr/annuaire/075-paris/paris-5e-arrondissement/etab/empu-sommerard-10-rue-du-sommerard.html;143547249;48.8499348;2.3468667;102.0;non;non;non;10;rue du sommerard;rue;110;<a href=https://www.education.gouv.fr/annuaire/075-paris/paris-5e-arrondissement/etab/empu-sommerard-10-rue-du-sommerard.html>e.m.pu sommerard </a><br>Adresse: 10 rue du sommerard<br>cp: 75005
86;86;Privé;e.p.pr soeur rosalie (catholique);Ecole;1.0;maternelle;32 rue geoffroy saint hilaire;75005;https://rosalie-marillac.com;143319401;48.8408011;2.3562195;260.0;non;non;catholique;32;rue geoffroy saint hilaire;rue;132;<a href=https://rosalie-marillac.com>e.p.pr soeur rosalie (catholique)</a><br>Adresse: 32 rue geoffroy saint hilaire<br>cp: 75005
87;87;Municipal;georges desplas;halte-garderie;;creche;7 rue georges desplas;75005;https://www.paris.fr/equipements/halte-garderie-municipale-georges-desplas-1857;147074184;48.8420374;2.3544658;20;non;non;non;7;rue georges desplas;rue;107;<a href=https://www.paris.fr/equipements/halte-garderie-municipale-georges-desplas-1857>georges desplas</a><br>Adresse: 7 rue georges desplas<br>cp: 75005
88;88;Municipal;jean calvin;crèche collective;;creche;4 rue jean calvin;75005;https://www.paris.fr/equipements/creche-collective-municipale-jean-calvin-2107;143363237;48.8415875;2.3491594;71;non;non;non;4;rue jean calvin;rue;104;<a href=https://www.paris.fr/equipements/creche-collective-municipale-jean-calvin-2107>jean calvin</a><br>Adresse: 4 rue jean calvin<br>cp: 75005
89;89;Privé;e.p.pr saint-victor (catholique);Ecole;1.0;maternelle;35 rue jussieu;75005;http://www.ecolesaintvictor.com;143544086;48.8469975;2.3535953;187.0;non;non;catholique;35;rue jussieu;rue;135;<a href=http://www.ecolesaintvictor.com>e.p.pr saint-victor (catholique)</a><br>Adresse: 35 rue jussieu<br>cp: 75005
90;90;Municipal;lacépède;crèche collective;;creche;48 rue lacépède;75005;https://www.paris.fr/equipements/creche-collective-municipale-contrescarpe-2074;143374476;48.8443172;2.3502281;82;non;non;non;48;rue lacépède;rue;148;<a href=https://www.paris.fr/equipements/creche-collective-municipale-contrescarpe-2074>lacépède</a><br>Adresse: 48 rue lacépède<br>cp: 75005
91;91;Municipal;larrey;crèche familiale;;creche;2 rue larrey;75005;https://www.paris.fr/equipements/creche-familiale-municipale-larrey-1860;147076470;48.8414673;2.3539372;20;non;non;non;2;rue larrey;rue;102;<a href=https://www.paris.fr/equipements/creche-familiale-municipale-larrey-1860>larrey</a><br>Adresse: 2 rue larrey<br>cp: 75005
92;92;Public;e.m.pu mouffetard ;Ecole;0.0;maternelle;29 rue mouffetard;75005;https://www.education.gouv.fr/annuaire/075-paris/paris-5e-arrondissement/etab/empu-mouffetard-29-rue-mouffetard.html;143378646;48.8439848;2.349407;86.0;non;non;non;29;rue mouffetard;rue;129;<a href=https://www.education.gouv.fr/annuaire/075-paris/paris-5e-arrondissement/etab/empu-mouffetard-29-rue-mouffetard.html>e.m.pu mouffetard </a><br>Adresse: 29 rue mouffetard<br>cp: 75005
93;93;Public;e.m.pu mouffetard m ;Ecole;0.0;maternelle;97 rue mouffetard;75005;https://www.education.gouv.fr/annuaire/075-paris/paris-5e-arrondissement/etab/empu-mouffetard-m-97-rue-mouffetard.html;147072677;48.8412758;2.349704;124.0;non;non;non;97;rue mouffetard;rue;197;<a href=https://www.education.gouv.fr/annuaire/075-paris/paris-5e-arrondissement/etab/empu-mouffetard-m-97-rue-mouffetard.html>e.m.pu mouffetard m </a><br>Adresse: 97 rue mouffetard<br>cp: 75005
94;94;Municipal;pierre nicole;halte-garderie;;creche;40 rue pierre nicole;75005;https://www.paris.fr/equipements/halte-garderie-municipale-pierre-nicole-1863;156810220;48.8398598;2.3387094;20;non;non;non;40;rue pierre nicole;rue;140;<a href=https://www.paris.fr/equipements/halte-garderie-municipale-pierre-nicole-1863>pierre nicole</a><br>Adresse: 40 rue pierre nicole<br>cp: 75005
95;95;Municipal;poliveau;crèche collective;;creche;39 rue poliveau;75005;https://www.paris.fr/equipements/creche-collective-municipale-poliveau-2113;145876187;48.8398595;2.3576729;82;non;non;non;39;rue poliveau;rue;139;<a href=https://www.paris.fr/equipements/creche-collective-municipale-poliveau-2113>poliveau</a><br>Adresse: 39 rue poliveau<br>cp: 75005
96;96;Public;e.m.pu st jacques e ;Ecole;0.0;maternelle;242 rue saint jacques;75005;https://www.education.gouv.fr/annuaire/075-paris/paris-5e-arrondissement/etab/empu-st-jacques-e-242-rue-saint-jacques.html;143293874;48.8441163;2.3418246;135.0;non;non;non;242;rue saint jacques;rue;342;<a href=https://www.education.gouv.fr/annuaire/075-paris/paris-5e-arrondissement/etab/empu-st-jacques-e-242-rue-saint-jacques.html>e.m.pu st jacques e </a><br>Adresse: 242 rue saint jacques<br>cp: 75005
97;97;Privé;e.m.pr montessori inter jardin du lux (montessori, bilingue);Ecole;0.0;maternelle;247 rue saint jacques;75005;http://www.ecole-montessori-internationale.fr;980902670;48.8425086;2.3414275;;oui;oui;non;247;rue saint jacques;rue;347;<a href=http://www.ecole-montessori-internationale.fr>e.m.pr montessori inter jardin du lux (montessori, bilingue)</a><br>Adresse: 247 rue saint jacques<br>cp: 75005
98;98;Municipal;st médard;crèche collective;;creche;10 rue saint médard;75005;https://www.paris.fr/equipements/creche-collective-municipale-saint-medard-2111;155432945;48.8436626;2.3506222;55;non;non;non;10;rue saint médard;rue;110;<a href=https://www.paris.fr/equipements/creche-collective-municipale-saint-medard-2111>st médard</a><br>Adresse: 10 rue saint médard<br>cp: 75005
99;99;Municipal;valette;crèche collective;;creche;11 rue valette;75005;https://www.paris.fr/equipements/creche-collective-municipale-valette-2110;156812820;48.8475604;2.3468966;72;non;non;non;11;rue valette;rue;111;<a href=https://www.paris.fr/equipements/creche-collective-municipale-valette-2110>valette</a><br>Adresse: 11 rue valette<br>cp: 75005
100;100;Municipal;raspail;halte-garderie;;creche;85 boulevard raspail;75006;https://www.paris.fr/equipements/halte-garderie-municipale-raspail-1870;153630260;48.8421147;2.3294369;20;non;non;non;85;boulevard raspail;boulevard;185;<a href=https://www.paris.fr/equipements/halte-garderie-municipale-raspail-1870>raspail</a><br>Adresse: 85 boulevard raspail<br>cp: 75006
101;101;Association;croix saint simon jardin du luxembourg;halte-garderie;;creche;jardin du luxembourg;75006;https://www.croix-saint-simon.org/halte-garderie-jardin-luxembourg;142344750;48.846722850000006;2.336413030202252;25;non;non;non;0;jardin du luxembourg;jardin;100;<a href=https://www.croix-saint-simon.org/halte-garderie-jardin-luxembourg>croix saint simon jardin du luxembourg</a><br>Adresse: jardin du luxembourg<br>cp: 75006
102;102;Privé;e.p.pr sainte-genevieve (catholique);Ecole;1.0;maternelle;64 rue d'assas;75006;https://isg6.paris;144390100;48.8457816;2.3314035;188.0;non;non;catholique;64;rue d'assas;rue;164;<a href=https://isg6.paris>e.p.pr sainte-genevieve (catholique)</a><br>Adresse: 64 rue d'assas<br>cp: 75006
103;103;Municipal;fleurus;crèche collective;;creche;14 rue de fleurus;75006;https://www.paris.fr/equipements/creche-collective-municipale-de-fleurus-2121;142223828;48.8471313;2.3307401;55;non;non;non;14;rue de fleurus;rue;114;<a href=https://www.paris.fr/equipements/creche-collective-municipale-de-fleurus-2121>fleurus</a><br>Adresse: 14 rue de fleurus<br>cp: 75006
104;104;Privé;e.m.pr ecole a.p.e. (bilingue);Ecole;0.0;maternelle;4 rue de fleurus;75006;http://www.ecoleape.com;142221844;48.8471024;2.3319254;;non;oui;non;4;rue de fleurus;rue;104;<a href=http://www.ecoleape.com>e.m.pr ecole a.p.e. (bilingue)</a><br>Adresse: 4 rue de fleurus<br>cp: 75006
105;105;Privé;maison bleue joli colibri (montessori);micro-crèche;;creche;37 rue de la clef;75006;https://www.la-maison-bleue.fr/creche/ile-de-france/paris/75005/micro-creche-montessori-joli-colibri;;48.8423113;2.3526022;;oui;non;non;37;rue de la clef;rue;137;<a href=https://www.la-maison-bleue.fr/creche/ile-de-france/paris/75005/micro-creche-montessori-joli-colibri>maison bleue joli colibri (montessori)</a><br>Adresse: 37 rue de la clef<br>cp: 75006
106;106;Association;sèvres;crèche collective;;creche;83 rue de sèvres;75006;https://esperem.org/association/activites/departement-accompagnement-enfants-parents/les-creches/creche-sevres-%e2%80%a8;140358160;48.8502993;2.3242929;25;non;non;non;83;rue de sèvres;rue;183;<a href=https://esperem.org/association/activites/departement-accompagnement-enfants-parents/les-creches/creche-sevres-%e2%80%a8>sèvres</a><br>Adresse: 83 rue de sèvres<br>cp: 75006
107;107;Privé;kangourou montparnasse;crèche collective;;creche;34 rue du montparnasse;75006;https://www.lamaisonkangourou.com/la-maison-kangourou/creches/montparnasse;;48.8454434;2.3284101;;non;non;non;34;rue du montparnasse;rue;134;<a href=https://www.lamaisonkangourou.com/la-maison-kangourou/creches/montparnasse>kangourou montparnasse</a><br>Adresse: 34 rue du montparnasse<br>cp: 75006
108;108;Municipal;félibien;crèche multi-accueil;;creche;6 rue félibien;75006;https://www.paris.fr/equipements/multi-accueil-collectif-et-familial-municipal-felibien-2329;156812805;48.8521536;2.3365687;35;non;non;non;6;rue félibien;rue;106;<a href=https://www.paris.fr/equipements/multi-accueil-collectif-et-familial-municipal-felibien-2329>félibien</a><br>Adresse: 6 rue félibien<br>cp: 75006
109;109;Municipal;garancière;crèche collective;;creche;21 rue garanciere;75006;https://www.paris.fr/equipements/creche-collective-municipale-garanciere-2123;156813035;48.849437;2.3360374;72;non;non;non;21;rue garanciere;rue;121;<a href=https://www.paris.fr/equipements/creche-collective-municipale-garanciere-2123>garancière</a><br>Adresse: 21 rue garanciere<br>cp: 75006
110;110;Association;croix saint simon bethléem;crèche collective;;creche;14 rue jean bart;75006;https://www.croix-saint-simon.org/creche-collective-bethleem;145480296;48.847243;2.3308961;30;non;non;non;14;rue jean bart;rue;114;<a href=https://www.croix-saint-simon.org/creche-collective-bethleem>croix saint simon bethléem</a><br>Adresse: 14 rue jean bart<br>cp: 75006
111;111;Municipal;littré - occasionnel;halte-garderie;;creche;2 rue littré;75006;https://www.paris.fr/equipements/multi-accueil-municipal-littre-1875;145480677;48.8446352;2.3243864;26;non;non;non;2;rue littré;rue;102;<a href=https://www.paris.fr/equipements/multi-accueil-municipal-littre-1875>littré - occasionnel</a><br>Adresse: 2 rue littré<br>cp: 75006
112;112;Municipal;littré;crèche collective;;creche;4 rue littré;75006;https://www.paris.fr/equipements/creche-collective-municipale-littre-2125;145480806;48.8459637;2.323628;88;non;non;non;4;rue littré;rue;104;<a href=https://www.paris.fr/equipements/creche-collective-municipale-littre-2125>littré</a><br>Adresse: 4 rue littré<br>cp: 75006
113;113;Public;e.m.pu littre ;Ecole;0.0;maternelle;6 rue littré;75006;https://www.paris.fr/equipements/ecole-elementaire-littre-260;142221979;48.8457462;2.3237326;192.0;non;non;non;6;rue littré;rue;106;<a href=https://www.paris.fr/equipements/ecole-elementaire-littre-260>e.m.pu littre </a><br>Adresse: 6 rue littré<br>cp: 75006
114;114;Municipal;lobineau;crèche collective;;creche;10 rue lobineau;75006;https://www.paris.fr/equipements/multi-accueil-municipal-lobineau-2133;146345002;48.8517557;2.3360317;85;non;non;non;10;rue lobineau;rue;110;<a href=https://www.paris.fr/equipements/multi-accueil-municipal-lobineau-2133>lobineau</a><br>Adresse: 10 rue lobineau<br>cp: 75006
115;115;Public;e.m.pu madame u ;Ecole;0.0;maternelle;40 rue madame;75006;https://fr.mappy.com/poi/521e2c2c84ae4612aca22ddd;145487378;48.849099;2.3317108;134.0;non;non;non;40;rue madame;rue;140;<a href=https://fr.mappy.com/poi/521e2c2c84ae4612aca22ddd>e.m.pu madame u </a><br>Adresse: 40 rue madame<br>cp: 75006
116;116;Privé;e.p.pr bossuet ;Ecole;1.0;maternelle;51 rue madame;75006;http://www.ecolebossuet.com;142220176;48.849099;2.3317108;215.0;non;non;non;51;rue madame;rue;151;<a href=http://www.ecolebossuet.com>e.p.pr bossuet </a><br>Adresse: 51 rue madame<br>cp: 75006
117;117;Privé;liveli tralalère;crèche collective;;creche;52 rue madame;75006;https://www.liveli.fr/creches/tralalere;145444161;48.8479108;2.3315472;18;non;non;non;52;rue madame;rue;152;<a href=https://www.liveli.fr/creches/tralalere>liveli tralalère</a><br>Adresse: 52 rue madame<br>cp: 75006
118;118;Privé;liveli le jardin doré;crèche collective;;creche;79 rue madame;75006;https://www.liveli.fr/creches/le-jardin-dore;145484512;48.8460075;2.3316077;24;non;non;non;79;rue madame;rue;179;<a href=https://www.liveli.fr/creches/le-jardin-dore>liveli le jardin doré</a><br>Adresse: 79 rue madame<br>cp: 75006
119;119;Privé;e.p.pr ecole alsacienne;Ecole;1.0;maternelle;109 rue notre dame des champs;75006;http://www.ecole-alsacienne.org;144320475;48.8410032;2.3338327;591.0;non;non;non;109;rue notre dame des champs;rue;209;<a href=http://www.ecole-alsacienne.org>e.p.pr ecole alsacienne</a><br>Adresse: 109 rue notre dame des champs<br>cp: 75006
120;120;Association;croix saint simon louise jay;;;creche;13 rue notre dame des champs;75006;https://www.croix-saint-simon.org/multi-accueil-louise-jay;;48.8462704;2.3275191;;non;non;non;13;rue notre dame des champs;rue;113;<a href=https://www.croix-saint-simon.org/multi-accueil-louise-jay>croix saint simon louise jay</a><br>Adresse: 13 rue notre dame des champs<br>cp: 75006
121;121;Privé;e.p.pr stanislas (catholique);Ecole;1.0;maternelle;22 rue notre dame des champs;75006;https://www.stanislas.fr;142848800;48.8457556;2.3276653;474.0;non;non;catholique;22;rue notre dame des champs;rue;122;<a href=https://www.stanislas.fr>e.p.pr stanislas (catholique)</a><br>Adresse: 22 rue notre dame des champs<br>cp: 75006
122;122;Privé;e.m.pr at montessori (montessori);Ecole;0.0;maternelle;60 rue notre dame des champs;75006;https://www.at-montessori.com/fr/communaute-enfantine-2-3-ans-notre-dame-des-champs;145484397;48.8433293;2.3311426;;oui;non;non;60;rue notre dame des champs;rue;160;<a href=https://www.at-montessori.com/fr/communaute-enfantine-2-3-ans-notre-dame-des-champs>e.m.pr at montessori (montessori)</a><br>Adresse: 60 rue notre dame des champs<br>cp: 75006
123;123;Privé;e.p.pr sainte-marie de sion (catholique);Ecole;1.0;maternelle;93 rue notre dame des champs;75006;http://www.sion-paris.fr;143266908;48.841944;2.3322803;360.0;non;non;catholique;93;rue notre dame des champs;rue;193;<a href=http://www.sion-paris.fr>e.p.pr sainte-marie de sion (catholique)</a><br>Adresse: 93 rue notre dame des champs<br>cp: 75006
124;124;Public;e.m.pu st andre des arts ;Ecole;0.0;maternelle;39 rue saint andré des arts;75006;https://www.education.gouv.fr/annuaire/075-paris/paris-6e-arrondissement/etab/empu-st-andre-des-arts-39-rue-saint-andre-des-arts.html;143544207;48.8532641;2.341306231173784;108.0;non;non;non;39;rue saint andré des arts;rue;139;<a href=https://www.education.gouv.fr/annuaire/075-paris/paris-6e-arrondissement/etab/empu-st-andre-des-arts-39-rue-saint-andre-des-arts.html>e.m.pu st andre des arts </a><br>Adresse: 39 rue saint andré des arts<br>cp: 75006
125;125;Public;e.p.pu st benoit ;Ecole;1.0;maternelle;12 rue saint benoît;75006;https://www.education.gouv.fr/annuaire/075-paris/paris-6e-arrondissement/etab/eppu-st-benoit-12-rue-saint-benoit.html;142602482;48.8550938;2.3330595;250.0;non;non;non;12;rue saint benoît;rue;112;<a href=https://www.education.gouv.fr/annuaire/075-paris/paris-6e-arrondissement/etab/eppu-st-benoit-12-rue-saint-benoit.html>e.p.pu st benoit </a><br>Adresse: 12 rue saint benoît<br>cp: 75006
126;126;Municipal;visconti;crèche collective;;creche;15 rue visconti;75006;https://www.paris.fr/equipements/creche-collective-municipale-visconti-2130;155422215;48.8556865;2.3365003;72;non;non;non;15;rue visconti;rue;115;<a href=https://www.paris.fr/equipements/creche-collective-municipale-visconti-2130>visconti</a><br>Adresse: 15 rue visconti<br>cp: 75006
127;127;Privé;people & baby lotus;micro-crèche;;creche;3 avenue de breteuil;75007;https://www.people-and-baby.com/creche/lotus/99195730;;48.851626;2.3117484;;non;non;non;3;avenue de breteuil;avenue;103;<a href=https://www.people-and-baby.com/creche/lotus/99195730>people & baby lotus</a><br>Adresse: 3 avenue de breteuil<br>cp: 75007
128;128;Privé;chaperons segur-fontenoy;;;creche;3 avenue de saxe;75007;https://www.lpcr.fr/de/creches/paris-7e/389;;48.8489368;2.3093032;;non;non;non;3;avenue de saxe;avenue;103;<a href=https://www.lpcr.fr/de/creches/paris-7e/389>chaperons segur-fontenoy</a><br>Adresse: 3 avenue de saxe<br>cp: 75007
129;129;Privé;e.p.pr jeannine manuel (bilingue);Ecole;1.0;maternelle;141 avenue de suffren;75007;http://www.ecolejeanninemanuel.org;142544583;48.847428;2.3072741;193.0;non;oui;non;141;avenue de suffren;avenue;241;<a href=http://www.ecolejeanninemanuel.org>e.p.pr jeannine manuel (bilingue)</a><br>Adresse: 141 avenue de suffren<br>cp: 75007
130;130;Privé;e.p.pr the lennen bilingual (bilingue);Ecole;1.0;maternelle;11 avenue de villars;75007;https://www.lennenbilingual.com/fr;153599073;48.85257;2.3137163;;non;oui;non;11;avenue de villars;avenue;111;<a href=https://www.lennenbilingual.com/fr>e.p.pr the lennen bilingual (bilingue)</a><br>Adresse: 11 avenue de villars<br>cp: 75007
131;131;Privé;e.p.pr sainte-jeanne elisabeth (catholique);Ecole;1.0;maternelle;49 avenue duquesne;75007;https://www.ste-jeanne-elisabeth.com;147349794;48.849654;2.3136603;233.0;non;non;catholique;49;avenue duquesne;avenue;149;<a href=https://www.ste-jeanne-elisabeth.com>e.p.pr sainte-jeanne elisabeth (catholique)</a><br>Adresse: 49 avenue duquesne<br>cp: 75007
132;132;Public;e.m.pu rapp ;Ecole;0.0;maternelle;28 avenue rapp;75007;https://www.paris.fr/equipements/ecole-maternelle-rapp-595;147058340;48.8586238;2.3002179;140.0;non;non;non;28;avenue rapp;avenue;128;<a href=https://www.paris.fr/equipements/ecole-maternelle-rapp-595>e.m.pu rapp </a><br>Adresse: 28 avenue rapp<br>cp: 75007
133;133;Privé;people & baby celeste (bilingue);halte-garderie;;creche;80 boulevard de la tour maubourg;75007;https://www.people-and-baby.com/creche/celeste/992563;;48.8557333;2.3095661;;non;oui;non;80;boulevard de la tour maubourg;boulevard;180;<a href=https://www.people-and-baby.com/creche/celeste/992563>people & baby celeste (bilingue)</a><br>Adresse: 80 boulevard de la tour maubourg<br>cp: 75007
134;134;Privé;chaperons les malicieux des invalides;micro-crèche;;creche;38 boulevard des invalides;75007;https://www.lpcr.fr/en/creches/paris-7e/179;;48.8500551;2.314521;10;non;non;non;38;boulevard des invalides;boulevard;138;<a href=https://www.lpcr.fr/en/creches/paris-7e/179>chaperons les malicieux des invalides</a><br>Adresse: 38 boulevard des invalides<br>cp: 75007
135;135;Association;croix saint simon champ de mars;halte-garderie;;creche;avenue charles risler;75007;https://www.croix-saint-simon.org/halte-garderie-champ-mars-paris-7;143060798;48.8551344;2.3011121;25;non;non;non;0;avenue charles risler;avenue;100;<a href=https://www.croix-saint-simon.org/halte-garderie-champ-mars-paris-7>croix saint simon champ de mars</a><br>Adresse: avenue charles risler<br>cp: 75007
136;136;Privé;e.p.pr the bilingual montessori school of paris (montessori, bilingue);Ecole;;creche;65 quai d’orsay;75007;https://montessori-paris.com/our-schools/65-quai-dorsay;;48.8622715;2.3066067;;oui;oui;non;65;quai d’orsay;quai;165;<a href=https://montessori-paris.com/our-schools/65-quai-dorsay>e.p.pr the bilingual montessori school of paris (montessori, bilingue)</a><br>Adresse: 65 quai d’orsay<br>cp: 75007
137;137;Privé;the bilingual montessori school of paris (montessori, bilingue);;;creche;65 quai d’orsay;75007;https://montessori-paris.com/our-schools/65-quai-dorsay;;48.8622715;2.3066067;;oui;oui;non;65;quai d’orsay;quai;165;<a href=https://montessori-paris.com/our-schools/65-quai-dorsay>the bilingual montessori school of paris (montessori, bilingue)</a><br>Adresse: 65 quai d’orsay<br>cp: 75007
138;138;Association;accueil des tout petits au bon conseil;halte-garderie;;creche;8 rue albert de lapparent;75007;http://www.bonconseil.org;147342200;48.8484027;2.3081466;20;non;non;non;8;rue albert de lapparent;rue;108;<a href=http://www.bonconseil.org>accueil des tout petits au bon conseil</a><br>Adresse: 8 rue albert de lapparent<br>cp: 75007
139;139;Privé;e.p.pr ellipse montessori academy (montessori, bilingue);Ecole;1.0;maternelle;3 rue amélie;75007;http://www.ellipsema.com;145006625;48.8594005;2.3074659;;oui;oui;non;3;rue amélie;rue;103;<a href=http://www.ellipsema.com>e.p.pr ellipse montessori academy (montessori, bilingue)</a><br>Adresse: 3 rue amélie<br>cp: 75007
140;140;Privé;les explorateurs du gros-caillou;;;creche;6 rue amélie;75007;https://www.lesbebesexplorateurs.com/creche-paris-75007-gros-caillou;;48.8593164;2.3073819;;non;non;non;6;rue amélie;rue;106;<a href=https://www.lesbebesexplorateurs.com/creche-paris-75007-gros-caillou>les explorateurs du gros-caillou</a><br>Adresse: 6 rue amélie<br>cp: 75007
141;141;Association;aide aux mères de familles;halte-garderie;;creche;12 rue chomel;75007;https://www.paris.fr/equipements/halte-garderie-associative-aide-aux-meres-de-famille-1880;142223424;48.8519438;2.324898;50;non;non;non;12;rue chomel;rue;112;<a href=https://www.paris.fr/equipements/halte-garderie-associative-aide-aux-meres-de-famille-1880>aide aux mères de familles</a><br>Adresse: 12 rue chomel<br>cp: 75007
142;142;Public;e.p.pu chomel ;Ecole;1.0;maternelle;8 rue chomel;75007;https://fr.mappy.com/poi/50acbacf84aec85bd0b88f49;145489074;48.8521661;2.3255561;261.0;non;non;non;8;rue chomel;rue;108;<a href=https://fr.mappy.com/poi/50acbacf84aec85bd0b88f49>e.p.pu chomel </a><br>Adresse: 8 rue chomel<br>cp: 75007
143;143;Privé;e.p.pr la rochefoucauld (catholique);Ecole;1.0;maternelle;11 rue cler;75007;https://laroche.org;147059896;48.8584627;2.3056371;694.0;non;non;catholique;11;rue cler;rue;111;<a href=https://laroche.org>e.p.pr la rochefoucauld (catholique)</a><br>Adresse: 11 rue cler<br>cp: 75007
144;144;Municipal;estrées;crèche collective;;creche;14 rue d'estrées;75007;https://www.paris.fr/equipements/creche-collective-municipale-d-estrees-2134;144117144;48.8515904;2.3114161;72;non;non;non;14;rue d'estrées;rue;114;<a href=https://www.paris.fr/equipements/creche-collective-municipale-d-estrees-2134>estrées</a><br>Adresse: 14 rue d'estrées<br>cp: 75007
145;145;Municipal;grenelle;crèche collective;;creche;164 rue de grenelle;75007;https://www.paris.fr/equipements/creche-collective-municipale-de-grenelle-2143;147058832;48.8580602;2.3089956;72;non;non;non;164;rue de grenelle;rue;264;<a href=https://www.paris.fr/equipements/creche-collective-municipale-de-grenelle-2143>grenelle</a><br>Adresse: 164 rue de grenelle<br>cp: 75007
146;146;Association;croix rouge st pierre du gros cailloux;crèche collective;;creche;182 rue de grenelle;75007;https://pourvous.croix-rouge.fr/creche-collective-saint-pierre-du-gros-caillou;145557350;48.8578318;2.3063172;75;non;non;non;182;rue de grenelle;rue;282;<a href=https://pourvous.croix-rouge.fr/creche-collective-saint-pierre-du-gros-caillou>croix rouge st pierre du gros cailloux</a><br>Adresse: 182 rue de grenelle<br>cp: 75007
147;147;Privé;e.p.pr sainte-clotilde (catholique);Ecole;1.0;maternelle;77 rue de grenelle;75007;https://www.ecole-sainte-clotilde.org;145487219;48.8555983;2.3233945;344.0;non;non;catholique;77;rue de grenelle;rue;177;<a href=https://www.ecole-sainte-clotilde.org>e.p.pr sainte-clotilde (catholique)</a><br>Adresse: 77 rue de grenelle<br>cp: 75007
148;148;Municipal;université;crèche collective;;creche;145 rue de l'université;75007;https://www.paris.fr/equipements/creche-collective-municipale-de-l-universite-2137;147537667;48.8610726;2.3061455;34;non;non;non;145;rue de l'université;rue;245;<a href=https://www.paris.fr/equipements/creche-collective-municipale-de-l-universite-2137>université</a><br>Adresse: 145 rue de l'université<br>cp: 75007
149;149;Privé;people & baby etincelles (bilingue);crèche collective;;creche;148 rue de l'université;75007;https://www.people-and-baby.com/creche/etincelles/9927140;;48.8612123;2.3090236;;non;oui;non;148;rue de l'université;rue;248;<a href=https://www.people-and-baby.com/creche/etincelles/9927140>people & baby etincelles (bilingue)</a><br>Adresse: 148 rue de l'université<br>cp: 75007
150;150;Public;e.m.pu eble c ;Ecole;0.0;maternelle;14 rue eblé;75007;https://www.education.gouv.fr/annuaire/075-paris/paris-7e-arrondissement/etab/empu-eble-c-14-rue-eble.html;145671533;48.849029;2.3128397;167.0;non;non;non;14;rue eblé;rue;114;<a href=https://www.education.gouv.fr/annuaire/075-paris/paris-7e-arrondissement/etab/empu-eble-c-14-rue-eble.html>e.m.pu eble c </a><br>Adresse: 14 rue eblé<br>cp: 75007
151;151;Public;e.p.pu las cases ;Ecole;1.0;maternelle;27 rue las cases;75007;https://fr.mappy.com/poi/50acbc5184aec85bd0b89a69;145519331;48.858985;2.3185988;140.0;non;non;non;27;rue las cases;rue;127;<a href=https://fr.mappy.com/poi/50acbc5184aec85bd0b89a69>e.p.pu las cases </a><br>Adresse: 27 rue las cases<br>cp: 75007
152;152;Association;croix saint simon la providence;crèche collective;;creche;3 rue oudinot;75007;https://www.croix-saint-simon.org/multi-accueil-providence-paris-7;143061116;48.8504011;2.3190605;60;non;non;non;3;rue oudinot;rue;103;<a href=https://www.croix-saint-simon.org/multi-accueil-providence-paris-7>croix saint simon la providence</a><br>Adresse: 3 rue oudinot<br>cp: 75007
153;153;Privé;e.p.pr saint-thomas d'aquin (catholique);Ecole;1.0;maternelle;7 rue perronet;75007;https://www.saintthomasdaquin.fr;145487254;48.8552883;2.3302403;128.0;non;non;catholique;7;rue perronet;rue;107;<a href=https://www.saintthomasdaquin.fr>e.p.pr saint-thomas d'aquin (catholique)</a><br>Adresse: 7 rue perronet<br>cp: 75007
154;154;Association;gros cailloux;halte-garderie;;creche;11 rue pierre villey;75007;http://www.joannaise-gros-caillou.com;145551875;48.8598811;2.3045925;25;non;non;non;11;rue pierre villey;rue;111;<a href=http://www.joannaise-gros-caillou.com>gros cailloux</a><br>Adresse: 11 rue pierre villey<br>cp: 75007
155;155;Privé;e.e.pr cours du pont de pierre ;Ecole;1.0;maternelle;11 rue pierre villey;75007;https://coursdupontdepierre.com;952533012;48.8598811;2.3045925;;non;non;non;11;rue pierre villey;rue;111;<a href=https://coursdupontdepierre.com>e.e.pr cours du pont de pierre </a><br>Adresse: 11 rue pierre villey<br>cp: 75007
156;156;Privé;people & baby libellule (bilingue);crèche d'entreprise;;creche;101 rue saint dominique;75007;https://www.people-and-baby.com/creche/libellule/992381;668308479;48.8594826;2.3065868;26;non;oui;non;101;rue saint dominique;rue;201;<a href=https://www.people-and-baby.com/creche/libellule/992381>people & baby libellule (bilingue)</a><br>Adresse: 101 rue saint dominique<br>cp: 75007
157;157;Public;e.m.pu st dominique ;Ecole;0.0;maternelle;117 rue saint dominique;75007;https://www.education.gouv.fr/annuaire/075-paris/paris-7e-arrondissement/etab/empu-st-dominique-117-bis-rue-saint-dominique.html;147058463;48.8590447;2.3045397;185.0;non;non;non;117;rue saint dominique;rue;217;<a href=https://www.education.gouv.fr/annuaire/075-paris/paris-7e-arrondissement/etab/empu-st-dominique-117-bis-rue-saint-dominique.html>e.m.pu st dominique </a><br>Adresse: 117 rue saint dominique<br>cp: 75007
158;158;Privé;lennen bilingual school (bilingue);jardin d'enfants;;creche;145 rue saint dominique;75007;www.lennenbilingual.com;147056655;48.8579018;2.3010707;;non;oui;non;145;rue saint dominique;rue;245;<a href=www.lennenbilingual.com>lennen bilingual school (bilingue)</a><br>Adresse: 145 rue saint dominique<br>cp: 75007
159;159;Public;e.m.pu vaneau ;Ecole;0.0;maternelle;48 rue vaneau;75007;https://www.pagesjaunes.fr/pros/12015132;142221771;48.8512066;2.3191773;96.0;non;non;non;48;rue vaneau;rue;148;<a href=https://www.pagesjaunes.fr/pros/12015132>e.m.pu vaneau </a><br>Adresse: 48 rue vaneau<br>cp: 75007
160;160;Public;e.p.pu louis de funes ;Ecole;1.0;maternelle;2 allée louis de funès;75008;https://www.ac-paris.fr/serail/jcms/s2_1482500/fr/accueil;142256816;48.8760334;2.3060103;360.0;non;non;non;2;allée louis de funès;allée;102;<a href=https://www.ac-paris.fr/serail/jcms/s2_1482500/fr/accueil>e.p.pu louis de funes </a><br>Adresse: 2 allée louis de funès<br>cp: 75008
161;161;Privé;e.p.pr the bilingual montessori school of paris (montessori, bilingue);Ecole;1.0;maternelle;23 avenue george v;75008;https://montessori-paris.com/our-schools/23-avenue-george-v;145551327;48.8675058;2.3009402;;oui;oui;non;23;avenue george v;avenue;123;<a href=https://montessori-paris.com/our-schools/23-avenue-george-v>e.p.pr the bilingual montessori school of paris (montessori, bilingue)</a><br>Adresse: 23 avenue george v<br>cp: 75008
162;162;Privé;the bilingual montessori school of paris (montessori, bilingue);;;creche;23 avenue george v;75008;https://montessori-paris.com/our-schools/23-avenue-george-v;;48.8675058;2.3009402;;oui;oui;non;23;avenue george v;avenue;123;<a href=https://montessori-paris.com/our-schools/23-avenue-george-v>the bilingual montessori school of paris (montessori, bilingue)</a><br>Adresse: 23 avenue george v<br>cp: 75008
163;163;Privé;e.p.pr e.i.b. monceau (bilingue);Ecole;1.0;maternelle;6 avenue van dyck;75008;http://www.eibparis.fr;146221424;48.878225;2.306437971850777;885.0;non;oui;non;6;avenue van dyck;avenue;106;<a href=http://www.eibparis.fr>e.p.pr e.i.b. monceau (bilingue)</a><br>Adresse: 6 avenue van dyck<br>cp: 75008
164;164;Privé;chaperons les malicieux de malesherbes;micro-crèche;;creche;63 boulevard malesherbes;75008;https://www.lpcr.fr/fr/creches/paris/184;;48.8747323;2.319942;10;non;non;non;63;boulevard malesherbes;boulevard;163;<a href=https://www.lpcr.fr/fr/creches/paris/184>chaperons les malicieux de malesherbes</a><br>Adresse: 63 boulevard malesherbes<br>cp: 75008
165;165;Privé;people & baby attrape reves;crèche multi-accueil;;creche;28 rue bayard;75008;https://www.people-and-baby.com/creche/attrape-reves/99187184;;48.8673836;2.3078301;;non;non;non;28;rue bayard;rue;128;<a href=https://www.people-and-baby.com/creche/attrape-reves/99187184>people & baby attrape reves</a><br>Adresse: 28 rue bayard<br>cp: 75008
166;166;Association;beauvau;crèche multi-accueil;;creche;11 rue cambacérès;75008;www.fondationjeanmoulin.f;140072504;48.8725023;2.3179983;55;non;non;non;11;rue cambacérès;rue;111;<a href=www.fondationjeanmoulin.f>beauvau</a><br>Adresse: 11 rue cambacérès<br>cp: 75008
167;167;Privé;people & baby cabriole (bilingue);crèche collective;;creche;14 rue cambacérès;75008;https://www.people-and-baby.com/creche/cabriole/992347;660296417;48.8729482;2.3180459;13;non;oui;non;14;rue cambacérès;rue;114;<a href=https://www.people-and-baby.com/creche/cabriole/992347>people & baby cabriole (bilingue)</a><br>Adresse: 14 rue cambacérès<br>cp: 75008
168;168;Privé;e.p.pr saint-pierre de chaillot (catholique);Ecole;1.0;maternelle;10 rue christophe colomb;75008;http://www.ecolesaintpierredechaillot.fr;147239509;48.8698508;2.2993738;206.0;non;non;catholique;10;rue christophe colomb;rue;110;<a href=http://www.ecolesaintpierredechaillot.fr>e.p.pr saint-pierre de chaillot (catholique)</a><br>Adresse: 10 rue christophe colomb<br>cp: 75008
169;169;Privé;e.p.pr ecole canadienne bilingue paris (bilingue);Ecole;1.0;maternelle;5 rue d'aguesseau;75008;https://ecb-cbs.ca;143870044;48.8700203;2.3192124;;non;oui;non;5;rue d'aguesseau;rue;105;<a href=https://ecb-cbs.ca>e.p.pr ecole canadienne bilingue paris (bilingue)</a><br>Adresse: 5 rue d'aguesseau<br>cp: 75008
170;170;Privé;babilou paris amsterdam;crèche multi-accueil;;creche;15 rue d'amsterdam;75008;https://www.babilou.fr/creches/babilou-paris-amsterdam;141199650;48.8808667;2.3270663;37;non;non;non;15;rue d'amsterdam;rue;115;<a href=https://www.babilou.fr/creches/babilou-paris-amsterdam>babilou paris amsterdam</a><br>Adresse: 15 rue d'amsterdam<br>cp: 75008
171;171;Privé;chaperons les malicieux de bucarest;crèche collective;;creche;7 rue de bucarest;75008;https://www.lpcr.fr/fr/creches/paris/225;;48.8806511;2.3263159;47;non;non;non;7;rue de bucarest;rue;107;<a href=https://www.lpcr.fr/fr/creches/paris/225>chaperons les malicieux de bucarest</a><br>Adresse: 7 rue de bucarest<br>cp: 75008
172;172;Municipal;florence;halte-garderie;;creche;2 rue de florence;75008;https://www.paris.fr/equipements/halte-garderie-municipale-de-florence-1894;144908580;48.8823107;2.3257256;20;non;non;non;2;rue de florence;rue;102;<a href=https://www.paris.fr/equipements/halte-garderie-municipale-de-florence-1894>florence</a><br>Adresse: 2 rue de florence<br>cp: 75008
173;173;Public;e.m.pu bienfaisance f ;Ecole;0.0;maternelle;12 rue de la bienfaisance;75008;https://www.education.gouv.fr/annuaire/075-paris/paris-8e-arrondissement/etab/empu-bienfaisance-f-12-rue-de-la-bienfaisance.html;145226957;48.8768062;2.3201306;167.0;non;non;non;12;rue de la bienfaisance;rue;112;<a href=https://www.education.gouv.fr/annuaire/075-paris/paris-8e-arrondissement/etab/empu-bienfaisance-f-12-rue-de-la-bienfaisance.html>e.m.pu bienfaisance f </a><br>Adresse: 12 rue de la bienfaisance<br>cp: 75008
174;174;Privé;e.p.pr fenelon sainte-marie (catholique);Ecole;1.0;maternelle;7 rue de la bienfaisance;75008;https://www.fenelonsaintemarie.org;145229167;48.8767076;2.3203648;398.0;non;non;catholique;7;rue de la bienfaisance;rue;107;<a href=https://www.fenelonsaintemarie.org>e.p.pr fenelon sainte-marie (catholique)</a><br>Adresse: 7 rue de la bienfaisance<br>cp: 75008
175;175;Privé;abc les coquin'ours (bilingue);halte-garderie;;creche;7 rue de la bienfaisance;75008;https://www.abcpuericulture.com/fr/creche-collective-paris/les-coquin-ours/4;143873161;48.8767076;2.3203648;20;non;oui;non;7;rue de la bienfaisance;rue;107;<a href=https://www.abcpuericulture.com/fr/creche-collective-paris/les-coquin-ours/4>abc les coquin'ours (bilingue)</a><br>Adresse: 7 rue de la bienfaisance<br>cp: 75008
176;176;Association;croix saint simon la pépinière;crèche collective;;creche;9 rue de la pépinière;75008;https://www.croix-saint-simon.org/creche-collective-pepiniere-paris-8;144707780;48.875069;2.3233879;55;non;non;non;9;rue de la pépinière;rue;109;<a href=https://www.croix-saint-simon.org/creche-collective-pepiniere-paris-8>croix saint simon la pépinière</a><br>Adresse: 9 rue de la pépinière<br>cp: 75008
177;177;Privé;e.p.pr hattemer (bilingue);Ecole;1.0;maternelle;52 rue de londres;75008;https://hattemer.fr;143875914;48.878392;2.3254963;;non;oui;non;52;rue de londres;rue;152;<a href=https://hattemer.fr>e.p.pr hattemer (bilingue)</a><br>Adresse: 52 rue de londres<br>cp: 75008
178;178;Privé;e.p.pr fenelon sainte-marie (catholique);Ecole;1.0;maternelle;95 rue de monceau;75008;https://www.fenelonsaintemarie.org;145227774;48.880632;2.3165995;426.0;non;non;catholique;95;rue de monceau;rue;195;<a href=https://www.fenelonsaintemarie.org>e.p.pr fenelon sainte-marie (catholique)</a><br>Adresse: 95 rue de monceau<br>cp: 75008
179;179;Public;e.m.pu moscou ;Ecole;0.0;maternelle;7 rue de moscou;75008;https://www.education.gouv.fr/annuaire/075-paris/paris-8e-arrondissement/etab/empu-moscou-7-rue-de-moscou.html;145229991;48.8800414;2.3260027;146.0;non;non;non;7;rue de moscou;rue;107;<a href=https://www.education.gouv.fr/annuaire/075-paris/paris-8e-arrondissement/etab/empu-moscou-7-rue-de-moscou.html>e.m.pu moscou </a><br>Adresse: 7 rue de moscou<br>cp: 75008
180;180;Privé;people & baby tom pouce;crèche collective;;creche;32 rue de turin;75008;https://www.people-and-baby.com/creche/tom-pouce/992493;;48.8821647;2.3245121;;non;non;non;32;rue de turin;rue;132;<a href=https://www.people-and-baby.com/creche/tom-pouce/992493>people & baby tom pouce</a><br>Adresse: 32 rue de turin<br>cp: 75008
181;181;Municipal;faubourg st honoré;crèche collective;;creche;208 rue du faubourg saint honoré;75008;https://www.paris.fr/equipements/creche-collective-municipale-du-faubourg-saint-honore-2147;158360085;48.8753931;2.3050601;66;non;non;non;208;rue du faubourg saint honoré;rue;308;<a href=https://www.paris.fr/equipements/creche-collective-municipale-du-faubourg-saint-honore-2147>faubourg st honoré</a><br>Adresse: 208 rue du faubourg saint honoré<br>cp: 75008
182;182;Privé;ecole primaire le cours du rocher (bilingue);Ecole;1.0;maternelle;230 rue du faubourg saint honoré;75008;http://www.petitcoursdurocher.com;180984655;48.8760275;2.3030413;;non;oui;non;230;rue du faubourg saint honoré;rue;330;<a href=http://www.petitcoursdurocher.com>ecole primaire le cours du rocher (bilingue)</a><br>Adresse: 230 rue du faubourg saint honoré<br>cp: 75008
183;183;Privé;e.m.pr le petit cours du rocher (bilingue);Ecole;0.0;maternelle;53 rue du rocher;75008;http://www.lepetitcoursdurocher.com;145224059;48.8786008;2.3192718;;non;oui;non;53;rue du rocher;rue;153;<a href=http://www.lepetitcoursdurocher.com>e.m.pr le petit cours du rocher (bilingue)</a><br>Adresse: 53 rue du rocher<br>cp: 75008
184;184;Privé;les petits tourbillons villiers (bilingue);crèche d'entreprise;;creche;3 rue larribe;75008;https://www.petits-tourbillons.com/faisons-connaissance;;48.8805101;2.3180806;10;non;oui;non;3;rue larribe;rue;103;<a href=https://www.petits-tourbillons.com/faisons-connaissance>les petits tourbillons villiers (bilingue)</a><br>Adresse: 3 rue larribe<br>cp: 75008
185;185;Municipal;beaujon;crèche collective;;creche;20 rue laure diebold;75008;https://www.paris.fr/equipements/creche-collective-laure-diebold-17366;153896095;48.8761077;2.3055253;;non;non;non;20;rue laure diebold;rue;120;<a href=https://www.paris.fr/equipements/creche-collective-laure-diebold-17366>beaujon</a><br>Adresse: 20 rue laure diebold<br>cp: 75008
186;186;Municipal;laure diébold;crèche multi-accueil;;creche;22 rue laure diebold;75008;https://www.paris.fr/equipements/creche-collective-laure-diebold-17366;153896775;48.8761866;2.3053811;66;non;non;non;22;rue laure diebold;rue;122;<a href=https://www.paris.fr/equipements/creche-collective-laure-diebold-17366>laure diébold</a><br>Adresse: 22 rue laure diebold<br>cp: 75008
187;187;Privé;people & baby galipolette;crèche multi-accueil;;creche;26 rue laure diebold;75008;https://www.people-and-baby.com/creche/galipette/99187173;;48.8759118;2.3049037;;non;non;non;26;rue laure diebold;rue;126;<a href=https://www.people-and-baby.com/creche/galipette/99187173>people & baby galipolette</a><br>Adresse: 26 rue laure diebold<br>cp: 75008
188;188;Municipal;maleville;crèche collective;;creche;5 rue maleville;75008;https://www.paris.fr/equipements/creche-collective-municipale-maleville-2151;145635255;48.8772995;2.3142568;55;non;non;non;5;rue maleville;rue;105;<a href=https://www.paris.fr/equipements/creche-collective-municipale-maleville-2151>maleville</a><br>Adresse: 5 rue maleville<br>cp: 75008
189;189;Public;e.p.pu paul baudry ;Ecole;1.0;maternelle;10 rue paul baudry;75008;https://www.ac-paris.fr/portail/jcms/3511_Spot/e-p-pu-paul-baudry-spot;143595642;48.872353;2.3073973;155.0;non;non;non;10;rue paul baudry;rue;110;<a href=https://www.ac-paris.fr/portail/jcms/3511_Spot/e-p-pu-paul-baudry-spot>e.p.pu paul baudry </a><br>Adresse: 10 rue paul baudry<br>cp: 75008
190;190;Public;e.p.pu robert estienne ;Ecole;1.0;maternelle;8 rue robert estienne;75008;https://www.ac-paris.fr/portail/jcms/2042_Spot/e-p-pu-robert-estienne-spot;143593740;48.8686255;2.305107;184.0;non;non;non;8;rue robert estienne;rue;108;<a href=https://www.ac-paris.fr/portail/jcms/2042_Spot/e-p-pu-robert-estienne-spot>e.p.pu robert estienne </a><br>Adresse: 8 rue robert estienne<br>cp: 75008
191;191;Public;e.m.pu roquepine ;Ecole;0.0;maternelle;16 rue roquepine;75008;https://www.education.gouv.fr/annuaire/075-paris/paris-8e-arrondissement/etab/empu-roquepine-16-rue-roquepine.html;142650582;48.873356;2.3184959;93.0;non;non;non;16;rue roquepine;rue;116;<a href=https://www.education.gouv.fr/annuaire/075-paris/paris-8e-arrondissement/etab/empu-roquepine-16-rue-roquepine.html>e.m.pu roquepine </a><br>Adresse: 16 rue roquepine<br>cp: 75008
192;192;Privé;chaperons les malicieux de coudray;micro-crèche;;creche;8 rue tronson du coudray;75008;https://www.lpcr.fr/de/creches/paris-8e/213;;48.8732484;2.3225316;10;non;non;non;8;rue tronson du coudray;rue;108;<a href=https://www.lpcr.fr/de/creches/paris-8e/213>chaperons les malicieux de coudray</a><br>Adresse: 8 rue tronson du coudray<br>cp: 75008
193;193;Privé;people & baby etoile vernet (bilingue);crèche d'entreprise;;creche;33 rue vernet;75008;https://www.people-and-baby.com/creche/l-etoile-vernet/992431;153239060;48.8721347;2.2974523;52;non;oui;non;33;rue vernet;rue;133;<a href=https://www.people-and-baby.com/creche/l-etoile-vernet/992431>people & baby etoile vernet (bilingue)</a><br>Adresse: 33 rue vernet<br>cp: 75008
194;194;Privé;people & baby colin-maillard;;;creche;39 avenue trudaine;75009;https://www.people-and-baby.com/creche/colin-maillard/99130286;;48.8809311;2.342093;;non;non;non;39;avenue trudaine;avenue;139;<a href=https://www.people-and-baby.com/creche/colin-maillard/99130286>people & baby colin-maillard</a><br>Adresse: 39 avenue trudaine<br>cp: 75009
195;195;Privé;babilou paris budapest;;;creche;2 place de budapest;75009;https://www.babilou.fr/creches/babilou-paris-budapest;;48.8771304;2.327376;;non;non;non;2;place de budapest;place;102;<a href=https://www.babilou.fr/creches/babilou-paris-budapest>babilou paris budapest</a><br>Adresse: 2 place de budapest<br>cp: 75009
196;196;Privé;les explorateurs de pigalle;;;creche;1 rue alfred stevens;75009;https://www.lesbebesexplorateurs.com/creche-paris-75009-pigalle;;48.8815251;2.3395893;;non;non;non;1;rue alfred stevens;rue;101;<a href=https://www.lesbebesexplorateurs.com/creche-paris-75009-pigalle>les explorateurs de pigalle</a><br>Adresse: 1 rue alfred stevens<br>cp: 75009
197;197;Municipal;ballu;crèche collective;;creche;25 rue ballu;75009;https://www.paris.fr/equipements/creche-collective-municipale-ballu-2162;142802566;48.8819919;2.3294075;72;non;non;non;25;rue ballu;rue;125;<a href=https://www.paris.fr/equipements/creche-collective-municipale-ballu-2162>ballu</a><br>Adresse: 25 rue ballu<br>cp: 75009
198;198;Association;blanche;crèche multi-accueil;;creche;13 rue blanche;75009;www.udaf75.fr;153162829;48.8771834;2.3321896;32;non;non;non;13;rue blanche;rue;113;<a href=www.udaf75.fr>blanche</a><br>Adresse: 13 rue blanche<br>cp: 75009
199;199;Privé;people & baby perce neige;micro-crèche;;creche;56 rue blanche;75009;https://www.people-and-baby.com/creche/perce-neige/99195672;;48.8805205;2.3314958;;non;non;non;56;rue blanche;rue;156;<a href=https://www.people-and-baby.com/creche/perce-neige/99195672>people & baby perce neige</a><br>Adresse: 56 rue blanche<br>cp: 75009
200;200;Public;e.m.pu blanche ;Ecole;0.0;maternelle;9 rue blanche;75009;https://www.ac-paris.fr/portail/jcms/3789_Spot/e-e-a-blanche-spot;148740356;48.8779692;2.3318;155.0;non;non;non;9;rue blanche;rue;109;<a href=https://www.ac-paris.fr/portail/jcms/3789_Spot/e-e-a-blanche-spot>e.m.pu blanche </a><br>Adresse: 9 rue blanche<br>cp: 75009
201;201;Privé;la marmotière blanche;micro-crèche;;creche;96 rue blanche;75009;www.lamarmotiere.com;783322852;48.8829911;2.3322425;10;non;non;non;96;rue blanche;rue;196;<a href=www.lamarmotiere.com>la marmotière blanche</a><br>Adresse: 96 rue blanche<br>cp: 75009
202;202;Privé;crescendo bleue;crèche collective;;creche;1 rue bleue;75009;https://www.crescendo.asso.fr/rue-bleue;144836560;48.8757639;2.3481166;;non;non;non;1;rue bleue;rue;101;<a href=https://www.crescendo.asso.fr/rue-bleue>crescendo bleue</a><br>Adresse: 1 rue bleue<br>cp: 75009
203;203;Public;e.m.pu buffault v ;Ecole;0.0;maternelle;34 rue buffault;75009;https://www.ac-paris.fr/serail/jcms/s2_2084558/fr/accueil;153208505;48.8751917;2.3416231;123.0;non;non;non;34;rue buffault;rue;134;<a href=https://www.ac-paris.fr/serail/jcms/s2_2084558/fr/accueil>e.m.pu buffault v </a><br>Adresse: 34 rue buffault<br>cp: 75009
204;204;Public;e.m.pu chaptal p ;Ecole;0.0;maternelle;12 rue chaptal;75009;https://www.ac-paris.fr/serail/jcms/s2_1584175/fr/accueil;142813976;48.8808181;2.3336182;130.0;non;non;non;12;rue chaptal;rue;112;<a href=https://www.ac-paris.fr/serail/jcms/s2_1584175/fr/accueil>e.m.pu chaptal p </a><br>Adresse: 12 rue chaptal<br>cp: 75009
205;205;Association;croix saint simon chaptal;crèche multi-accueil;;creche;26 rue chaptal;75009;https://www.croix-saint-simon.org/multi-accueil-chaptal-paris-9;153206590;48.8811111;2.3323039;26;non;non;non;26;rue chaptal;rue;126;<a href=https://www.croix-saint-simon.org/multi-accueil-chaptal-paris-9>croix saint simon chaptal</a><br>Adresse: 26 rue chaptal<br>cp: 75009
206;206;Privé;la marmotière choron;;;creche;14 rue choron;75009;www.lamarmotiere.com;;48.8775961;2.3409877;;non;non;non;14;rue choron;rue;114;<a href=www.lamarmotiere.com>la marmotière choron</a><br>Adresse: 14 rue choron<br>cp: 75009
207;207;Privé;e.p.pr notre-dame de lorette (catholique);Ecole;1.0;maternelle;8 rue choron;75009;http://www.notredamedelorette.org/index.php;148785480;48.8774461;2.3418732;381.0;non;non;catholique;8;rue choron;rue;108;<a href=http://www.notredamedelorette.org/index.php>e.p.pr notre-dame de lorette (catholique)</a><br>Adresse: 8 rue choron<br>cp: 75009
208;208;Public;e.m.pu clauzel ;Ecole;0.0;maternelle;12 rue clauzel;75009;https://www.education.gouv.fr/annuaire/075-paris/paris-9e-arrondissement/etab/empu-clauzel-12-rue-clauzel.html;145268249;48.8791551;2.3386632;131.0;non;non;non;12;rue clauzel;rue;112;<a href=https://www.education.gouv.fr/annuaire/075-paris/paris-9e-arrondissement/etab/empu-clauzel-12-rue-clauzel.html>e.m.pu clauzel </a><br>Adresse: 12 rue clauzel<br>cp: 75009
209;209;Privé;babilou paris condorcet;;;creche;39 rue condorcet;75009;https://www.babilou.fr/creches/babilou-paris-condorcet;;48.8799597;2.3443096;;non;non;non;39;rue condorcet;rue;139;<a href=https://www.babilou.fr/creches/babilou-paris-condorcet>babilou paris condorcet</a><br>Adresse: 39 rue condorcet<br>cp: 75009
210;210;Privé;chaperons condorcet;;;creche;60 rue condorcet;75009;https://www.lpcr.fr/fr/creches/paris/206;;48.8803473;2.3420821;;non;non;non;60;rue condorcet;rue;160;<a href=https://www.lpcr.fr/fr/creches/paris/206>chaperons condorcet</a><br>Adresse: 60 rue condorcet<br>cp: 75009
211;211;Privé;chaperons les malicieux de condorcet;micro-crèche;;creche;60 rue condorcet;75009;https://www.lpcr.fr/fr/creches/paris/206;;48.8803473;2.3420821;10;non;non;non;60;rue condorcet;rue;160;<a href=https://www.lpcr.fr/fr/creches/paris/206>chaperons les malicieux de condorcet</a><br>Adresse: 60 rue condorcet<br>cp: 75009
212;212;Association;atelier berlioz;halte-garderie;;creche;18 rue de bruxelles;75009;https://www.paris.fr/equipements/halte-garderie-associative-atelier-berlioz-1906;142829050;48.8834455;2.3308618;17;non;non;non;18;rue de bruxelles;rue;118;<a href=https://www.paris.fr/equipements/halte-garderie-associative-atelier-berlioz-1906>atelier berlioz</a><br>Adresse: 18 rue de bruxelles<br>cp: 75009
213;213;Public;e.m.pu bruxelles ;Ecole;0.0;maternelle;34 rue de bruxelles;75009;https://www.education.gouv.fr/annuaire/075-paris/paris-9e-arrondissement/etab/empu-bruxelles-34-rue-de-bruxelles.html;183982461;48.8829662;2.3286932;109.0;non;non;non;34;rue de bruxelles;rue;134;<a href=https://www.education.gouv.fr/annuaire/075-paris/paris-9e-arrondissement/etab/empu-bruxelles-34-rue-de-bruxelles.html>e.m.pu bruxelles </a><br>Adresse: 34 rue de bruxelles<br>cp: 75009
214;214;Municipal;chateaudun;crèche collective;;creche;32 rue de chateaudun;75009;https://www.paris.fr/equipements/creche-collective-municipale-de-chateaudun-16640;153251300;48.8761839;2.3366809;40;non;non;non;32;rue de chateaudun;rue;132;<a href=https://www.paris.fr/equipements/creche-collective-municipale-de-chateaudun-16640>chateaudun</a><br>Adresse: 32 rue de chateaudun<br>cp: 75009
215;215;Municipal;dunkerque;crèche collective;;creche;69 rue de dunkerque;75009;https://www.paris.fr/equipements/creche-collective-municipale-de-dunkerque-3611;149708315;48.8823859;2.3456177;50;non;non;non;69;rue de dunkerque;rue;169;<a href=https://www.paris.fr/equipements/creche-collective-municipale-de-dunkerque-3611>dunkerque</a><br>Adresse: 69 rue de dunkerque<br>cp: 75009
216;216;Public;e.m.pu grange bateliere ;Ecole;0.0;maternelle;11 rue de la grange batelière;75009;https://www.education.gouv.fr/annuaire/075-paris/paris-9e-arrondissement/etab/empu-grange-bateliere-11-rue-de-la-grange-bateliere.html;145231644;48.8730264;2.3420655;116.0;non;non;non;11;rue de la grange batelière;rue;111;<a href=https://www.education.gouv.fr/annuaire/075-paris/paris-9e-arrondissement/etab/empu-grange-bateliere-11-rue-de-la-grange-bateliere.html>e.m.pu grange bateliere </a><br>Adresse: 11 rue de la grange batelière<br>cp: 75009
217;217;Privé;e.p.pr montessori paris-drouot (montessori, bilingue);Ecole;1.0;maternelle;13 rue de la grange batelière;75009;https://ecolemontessoriparis.fr;149240569;48.8730567;2.3418225;;oui;oui;non;13;rue de la grange batelière;rue;113;<a href=https://ecolemontessoriparis.fr>e.p.pr montessori paris-drouot (montessori, bilingue)</a><br>Adresse: 13 rue de la grange batelière<br>cp: 75009
218;218;Municipal;la rochefoucaud;crèche collective;;creche;25 rue de la rochefoucauld;75009;https://www.paris.fr/equipements/creche-collective-municipale-de-la-rochefoucauld-2156;148747712;48.8813623;2.4129106;72;non;non;non;25;rue de la rochefoucauld;rue;125;<a href=https://www.paris.fr/equipements/creche-collective-municipale-de-la-rochefoucauld-2156>la rochefoucaud</a><br>Adresse: 25 rue de la rochefoucauld<br>cp: 75009
219;219;Privé;e.p.pr la trinite (catholique);Ecole;1.0;maternelle;16 rue de milan;75009;http://ecoletrinite.free.fr/?page_id=38;148743001;48.87906385;2.3277544052719064;296.0;non;non;catholique;16;rue de milan;rue;116;<a href=http://ecoletrinite.free.fr/?page_id=38>e.p.pr la trinite (catholique)</a><br>Adresse: 16 rue de milan<br>cp: 75009
220;220;Privé;crescendo provence;halte-garderie;;creche;21 rue de provence;75009;https://www.crescendo.asso.fr/provence;153246125;48.8740603;2.3399244;35;non;non;non;21;rue de provence;rue;121;<a href=https://www.crescendo.asso.fr/provence>crescendo provence</a><br>Adresse: 21 rue de provence<br>cp: 75009
221;221;Privé;people & baby fleur de lys;micro-crèche;;creche;6 rue rochambeau;75009;https://www.people-and-baby.com/creche/fleur-de-lys/99195781;;48.8773762;2.3464861;;non;non;non;6;rue rochambeau;rue;106;<a href=https://www.people-and-baby.com/creche/fleur-de-lys/99195781>people & baby fleur de lys</a><br>Adresse: 6 rue rochambeau<br>cp: 75009
222;222;Public;e.m.pu rochechouart ;Ecole;0.0;maternelle;22 rue marguerite de rochechouart;75009;https://www.ac-paris.fr/serail/jcms/s2_1590955/fr/accueil;142852430;48.87777;2.3449407;174.0;non;non;non;22;rue marguerite de rochechouart;rue;122;<a href=https://www.ac-paris.fr/serail/jcms/s2_1590955/fr/accueil>e.m.pu rochechouart </a><br>Adresse: 22 rue marguerite de rochechouart<br>cp: 75009
223;223;Public;e.m.pu rochechouart l ;Ecole;0.0;maternelle;68 rue de rochechouart;75009;https://www.education.gouv.fr/annuaire/075-paris/paris-9e-arrondissement/etab/empu-rochechouart-l-68-rue-de-rochechouart.html;153206870;48.8803961;2.3413549;133.0;non;non;non;68;rue de rochechouart;rue;168;<a href=https://www.education.gouv.fr/annuaire/075-paris/paris-9e-arrondissement/etab/empu-rochechouart-l-68-rue-de-rochechouart.html>e.m.pu rochechouart l </a><br>Adresse: 68 rue de rochechouart<br>cp: 75009
224;224;Association;bellan andré rousseau;crèche multi-accueil;;creche;19 rue des martyrs;75009;https://www.bellan.fr/page-template3?t=16;142818070;48.8781588;2.338673288967342;66;non;non;non;19;rue des martyrs;rue;119;<a href=https://www.bellan.fr/page-template3?t=16>bellan andré rousseau</a><br>Adresse: 19 rue des martyrs<br>cp: 75009
225;225;Municipal;martyrs;crèche collective;;creche;34 rue des martyrs;75009;https://www.paris.fr/equipements/creche-collective-municipale-des-martyrs-2160;142854510;48.8813264;2.3399425;72;non;non;non;34;rue des martyrs;rue;134;<a href=https://www.paris.fr/equipements/creche-collective-municipale-des-martyrs-2160>martyrs</a><br>Adresse: 34 rue des martyrs<br>cp: 75009
226;226;Municipal;drouot;crèche collective;;creche;11 rue drouot;75009;https://www.paris.fr/equipements/creche-collective-municipale-drouot-2158;142460299;48.8733839;2.3404653;77;non;non;non;11;rue drouot;rue;111;<a href=https://www.paris.fr/equipements/creche-collective-municipale-drouot-2158>drouot</a><br>Adresse: 11 rue drouot<br>cp: 75009
227;227;Privé;crescendo les poussins;;;creche;6 rue drouot;75009;https://www.crescendo.asso.fr/les-poussins-du-neuf;;48.8725984;2.3404534;;non;non;non;6;rue drouot;rue;106;<a href=https://www.crescendo.asso.fr/les-poussins-du-neuf>crescendo les poussins</a><br>Adresse: 6 rue drouot<br>cp: 75009
228;228;Privé;crescendo charivari;crèche multi-accueil;;creche;12 rue fromentin;75009;https://www.crescendo.asso.fr/charivari;145267909;48.8827151;2.3348076;35;non;non;non;12;rue fromentin;rue;112;<a href=https://www.crescendo.asso.fr/charivari>crescendo charivari</a><br>Adresse: 12 rue fromentin<br>cp: 75009
229;229;Privé;babilou paris mauroy;;;creche;12 rue godot de mauroy;75009;https://www.babilou.fr/creches/babilou-paris-mauroy;;48.8708046;2.3269381;;non;non;non;12;rue godot de mauroy;rue;112;<a href=https://www.babilou.fr/creches/babilou-paris-mauroy>babilou paris mauroy</a><br>Adresse: 12 rue godot de mauroy<br>cp: 75009
230;230;Privé;liveli monnier;;;creche;21 rue henry monnier;75009;https://www.liveli.fr/creches/monnier;;48.8802974;2.337374;;non;non;non;21;rue henry monnier;rue;121;<a href=https://www.liveli.fr/creches/monnier>liveli monnier</a><br>Adresse: 21 rue henry monnier<br>cp: 75009
231;231;Privé;chaperons les malicieux de pigalle;micro-crèche;;creche;59 rue jean baptiste pigalle;75009;https://www.lpcr.fr/de/creches/paris/239;;48.8809014;2.3356194;10;non;non;non;59;rue jean baptiste pigalle;rue;159;<a href=https://www.lpcr.fr/de/creches/paris/239>chaperons les malicieux de pigalle</a><br>Adresse: 59 rue jean baptiste pigalle<br>cp: 75009
232;232;Privé;liveli mes anges;;;creche;31 rue la fayette;75009;https://www.liveli.fr/creches/mes-anges;;48.8767817;2.3474129;;non;non;non;31;rue la fayette;rue;131;<a href=https://www.liveli.fr/creches/mes-anges>liveli mes anges</a><br>Adresse: 31 rue la fayette<br>cp: 75009
233;233;Privé;crescendo globe trotteurs;crèche collective;;creche;42 rue le peletier;75009;https://www.crescendo.asso.fr/les-globe-trotters;142803974;48.8755898;2.3398556;35;non;non;non;42;rue le peletier;rue;142;<a href=https://www.crescendo.asso.fr/les-globe-trotters>crescendo globe trotteurs</a><br>Adresse: 42 rue le peletier<br>cp: 75009
234;234;Municipal;tour d'auvergne;crèche collective;;creche;15 rue louise émilie de la tour d'auvergne;75009;https://www.paris.fr/equipements/creche-collective-municipale-de-la-tour-d-auvergne-18-3764;149708970;48.8789787;2.3441552;88;non;non;non;15;rue louise émilie de la tour d'auvergne;rue;115;<a href=https://www.paris.fr/equipements/creche-collective-municipale-de-la-tour-d-auvergne-18-3764>tour d'auvergne</a><br>Adresse: 15 rue louise émilie de la tour d'auvergne<br>cp: 75009
235;235;Privé;maison bleue chocolat;crèche collective;;creche;5 rue marguerite de rochechouart;75009;https://www.la-maison-bleue.fr/creche/ile-de-france/paris/75009/chocolat;146545800;48.8768128;2.3443774;36;non;non;non;5;rue marguerite de rochechouart;rue;105;<a href=https://www.la-maison-bleue.fr/creche/ile-de-france/paris/75009/chocolat>maison bleue chocolat</a><br>Adresse: 5 rue marguerite de rochechouart<br>cp: 75009
236;236;Public;e.p.pu milton ;Ecole;1.0;maternelle;5 rue milton;75009;https://www.education.gouv.fr/annuaire/075-paris/paris-9e-arrondissement/etab/eeapu-milton-21-rue-milton.html;148782344;48.8773511;2.340578;305.0;non;non;non;5;rue milton;rue;105;<a href=https://www.education.gouv.fr/annuaire/075-paris/paris-9e-arrondissement/etab/eeapu-milton-21-rue-milton.html>e.p.pu milton </a><br>Adresse: 5 rue milton<br>cp: 75009
237;237;Privé;la marmotière petrelle;micro-crèche;;creche;26 rue petrelle;75009;www.lamarmotiere.com;782322852;48.8808412;2.3471329;10;non;non;non;26;rue petrelle;rue;126;<a href=www.lamarmotiere.com>la marmotière petrelle</a><br>Adresse: 26 rue petrelle<br>cp: 75009
238;238;Privé;cabane de montholon;micro-crèche;;creche;8 rue rochambeau;75009;https://www.lespetitescabanes.eu/cabanedemontholon;;48.8773214;2.3462765;10;non;non;non;8;rue rochambeau;rue;108;<a href=https://www.lespetitescabanes.eu/cabanedemontholon>cabane de montholon</a><br>Adresse: 8 rue rochambeau<br>cp: 75009
239;239;Public;e.m.pu rodier ;Ecole;0.0;maternelle;30 rue rodier;75009;https://www.education.gouv.fr/annuaire/075-paris/paris-9e-arrondissement/etab/empu-rodier-30-rue-rodier.html;148781117;48.878702;2.3430096;90.0;non;non;non;30;rue rodier;rue;130;<a href=https://www.education.gouv.fr/annuaire/075-paris/paris-9e-arrondissement/etab/empu-rodier-30-rue-rodier.html>e.m.pu rodier </a><br>Adresse: 30 rue rodier<br>cp: 75009
240;240;Privé;liveli bulles de savon;;;creche;38 rue saint georges;75009;https://www.liveli.fr/creches/bulles-de-savon;;48.8763253;2.3371721;;non;non;non;38;rue saint georges;rue;138;<a href=https://www.liveli.fr/creches/bulles-de-savon>liveli bulles de savon</a><br>Adresse: 38 rue saint georges<br>cp: 75009
241;241;Privé;chaperons victoire;;;creche;63 rue taitbout;75009;https://www.lpcr.fr/fr/creches/paris/24;;48.875938;2.3352529;;non;non;non;63;rue taitbout;rue;163;<a href=https://www.lpcr.fr/fr/creches/paris/24>chaperons victoire</a><br>Adresse: 63 rue taitbout<br>cp: 75009
242;242;Privé;ecole maternelle privée wi school (bilingue);Ecole;0.0;maternelle;2 rue thimonnier;75009;https://francecole.fr/nos-ecoles/wi-school-paris-9;140099895;48.8800543;2.3473303;;non;oui;non;2;rue thimonnier;rue;102;<a href=https://francecole.fr/nos-ecoles/wi-school-paris-9>ecole maternelle privée wi school (bilingue)</a><br>Adresse: 2 rue thimonnier<br>cp: 75009
243;243;Municipal;turgot;crèche collective;;creche;13 rue turgot;75009;https://www.paris.fr/equipements/creche-collective-municipale-turgot-2155;153203215;48.8802885;2.3452574;61;non;non;non;13;rue turgot;rue;113;<a href=https://www.paris.fr/equipements/creche-collective-municipale-turgot-2155>turgot</a><br>Adresse: 13 rue turgot<br>cp: 75009
244;244;Municipal;victor massé;crèche collective;;creche;43 rue victor massé;75009;https://www.paris.fr/equipements/mini-creche-municipale-masse-3765;153204160;48.8810933;2.3362387;33;non;non;non;43;rue victor massé;rue;143;<a href=https://www.paris.fr/equipements/mini-creche-municipale-masse-3765>victor massé</a><br>Adresse: 43 rue victor massé<br>cp: 75009
245;245;Municipal;claude vellefaux;crèche collective;;creche;64 avenue claude vellefaux;75010;https://www.paris.fr/equipements/creche-collective-municipale-claude-vellefaux-1er-et-2eme-etage-2165;142380828;48.8768142;2.3704459;72;non;non;non;64;avenue claude vellefaux;avenue;164;<a href=https://www.paris.fr/equipements/creche-collective-municipale-claude-vellefaux-1er-et-2eme-etage-2165>claude vellefaux</a><br>Adresse: 64 avenue claude vellefaux<br>cp: 75010
246;246;Public;e.m.pu parmentier v ;Ecole;0.0;maternelle;11 avenue parmentier;75010;https://www.pagesjaunes.fr/pros/57566520;143793091;48.859674;2.3788755;126.0;non;non;non;11;avenue parmentier;avenue;111;<a href=https://www.pagesjaunes.fr/pros/57566520>e.m.pu parmentier v </a><br>Adresse: 11 avenue parmentier<br>cp: 75010
247;247;Public;e.m.pu parmentier y ;Ecole;0.0;maternelle;155 avenue parmentier;75010;https://www.paris.fr/equipements/ecole-maternelle-parmentier-155-122;142414094;48.8718536;2.3695004;219.0;non;non;non;155;avenue parmentier;avenue;255;<a href=https://www.paris.fr/equipements/ecole-maternelle-parmentier-155-122>e.m.pu parmentier y </a><br>Adresse: 155 avenue parmentier<br>cp: 75010
248;248;Privé;chaperons les malicieux de magenta;micro-crèche;;creche;36 boulevard de magenta;75010;https://www.lpcr.fr/fr/creches/paris/222;;48.8720116;2.3601236;10;non;non;non;36;boulevard de magenta;boulevard;136;<a href=https://www.lpcr.fr/fr/creches/paris/222>chaperons les malicieux de magenta</a><br>Adresse: 36 boulevard de magenta<br>cp: 75010
249;249;Association;babillages;crèche parentale;;creche;10 impasse delepine;75010;creche-babillages.com;143792504;48.8532156;2.3896581;16;non;non;non;10;impasse delepine;impasse;110;<a href=creche-babillages.com>babillages</a><br>Adresse: 10 impasse delepine<br>cp: 75010
250;250;Association;bellan saint sébastien;crèche collective;;creche;10 impasse saint sébastien;75010;https://www.bellan.fr/page-template3?t=18;143570710;48.8612098;2.3712276;40;non;non;non;10;impasse saint sébastien;impasse;110;<a href=https://www.bellan.fr/page-template3?t=18>bellan saint sébastien</a><br>Adresse: 10 impasse saint sébastien<br>cp: 75010
251;251;Municipal;sainte marthe;crèche collective;;creche;26 impasse sainte marthe;75010;https://www.paris.fr/equipements/mini-creche-municipale-sainte-marthe-2168;153191932;48.87395;2.3725061;;non;non;non;26;impasse sainte marthe;impasse;126;<a href=https://www.paris.fr/equipements/mini-creche-municipale-sainte-marthe-2168>sainte marthe</a><br>Adresse: 26 impasse sainte marthe<br>cp: 75010
252;252;Municipal;buisson st louis;crèche collective;;creche;17 passage buisson saint louis;75010;https://www.paris.fr/equipements/jardin-d-enfants-du-buisson-saint-louis-1849;142008283;48.8726771;2.3737121;30;non;non;non;17;passage buisson saint louis;passage;117;<a href=https://www.paris.fr/equipements/jardin-d-enfants-du-buisson-saint-louis-1849>buisson st louis</a><br>Adresse: 17 passage buisson saint louis<br>cp: 75010
253;253;Privé;chaperons les malicieux de saint maur;micro-crèche;;creche;10 passage de la fonderie;75010;https://www.lpcr.fr/de/creches/paris/176;;48.8660944;2.3758644;10;non;non;non;10;passage de la fonderie;passage;110;<a href=https://www.lpcr.fr/de/creches/paris/176>chaperons les malicieux de saint maur</a><br>Adresse: 10 passage de la fonderie<br>cp: 75010
254;254;Municipal;delessert;crèche collective;;creche;3 passage delessert;75010;https://www.paris.fr/equipements/creche-collective-municipale-delessert-16641;153358253;48.878866;2.3656492;;non;non;non;3;passage delessert;passage;103;<a href=https://www.paris.fr/equipements/creche-collective-municipale-delessert-16641>delessert</a><br>Adresse: 3 passage delessert<br>cp: 75010
255;255;Public;e.m.pu recollets s ;Ecole;0.0;maternelle;23 passage des récollets;75010;https://annuaire-education.fr/etablissement/Paris-10e--Arrondissement/E.M.PU-RECOLLETS-S-23-passage-des-R%25C3%25A9collets/0751379S.html;142050249;48.8745306;2.3606471;209.0;non;non;non;23;passage des récollets;passage;123;<a href=https://annuaire-education.fr/etablissement/Paris-10e--Arrondissement/E.M.PU-RECOLLETS-S-23-passage-des-R%25C3%25A9collets/0751379S.html>e.m.pu recollets s </a><br>Adresse: 23 passage des récollets<br>cp: 75010
256;256;Privé;païdou récollets;;;creche;6 passage des récollets;75010;https://www.paidou.fr/75-paris-recollets-1;;48.874012;2.3594893;;non;non;non;6;passage des récollets;passage;106;<a href=https://www.paidou.fr/75-paris-recollets-1>païdou récollets</a><br>Adresse: 6 passage des récollets<br>cp: 75010
257;257;Privé;e.p.pr la canopee 21 passage dubail (bilingue);Ecole;1.0;maternelle;21 passage dubail;75010;http://www.ecolelacanopee.fr;672589978;48.8737666;2.3600381;;non;oui;non;21;passage dubail;passage;121;<a href=http://www.ecolelacanopee.fr>e.p.pr la canopee 21 passage dubail (bilingue)</a><br>Adresse: 21 passage dubail<br>cp: 75010
258;258;Privé;e.p.pr saint-ambroise (catholique);Ecole;1.0;maternelle;11 passage saint ambroise;75010;https://www.saint-ambroise.fr;147007912;48.8636567;2.3770284;222.0;non;non;catholique;11;passage saint ambroise;passage;111;<a href=https://www.saint-ambroise.fr>e.p.pr saint-ambroise (catholique)</a><br>Adresse: 11 passage saint ambroise<br>cp: 75010
259;259;Privé;kangourou valmy;crèche collective;;creche;143 quai de valmy;75010;https://www.lamaisonkangourou.com/la-maison-kangourou/creches/valmy;153341161;48.8773217;2.3649766;15;non;non;non;143;quai de valmy;quai;243;<a href=https://www.lamaisonkangourou.com/la-maison-kangourou/creches/valmy>kangourou valmy</a><br>Adresse: 143 quai de valmy<br>cp: 75010
260;260;Privé;abc quai des ours (bilingue);crèche multi-accueil;;creche;159 quai de valmy;75010;https://www.abcpuericulture.com/fr/creche-collective-paris/quai-des-ours/10;140343292;48.8783377;2.3658181;74;non;oui;non;159;quai de valmy;quai;259;<a href=https://www.abcpuericulture.com/fr/creche-collective-paris/quai-des-ours/10>abc quai des ours (bilingue)</a><br>Adresse: 159 quai de valmy<br>cp: 75010
261;261;Privé;plic et ploc albert thomas;;;creche;33 rue albert thomas;75010;https://www.plicetploc.fr/contact;;48.8695633;2.3629885;;non;non;non;33;rue albert thomas;rue;133;<a href=https://www.plicetploc.fr/contact>plic et ploc albert thomas</a><br>Adresse: 33 rue albert thomas<br>cp: 75010
262;262;Association;club des petits gavroches;halte-garderie;;creche;33 rue beaurepaire;75010;https://www.paris.fr/equipements/halte-garderie-associative-le-club-des-petits-gavroches-1930;142005169;48.8715838;2.3642113;25;non;non;non;33;rue beaurepaire;rue;133;<a href=https://www.paris.fr/equipements/halte-garderie-associative-le-club-des-petits-gavroches-1930>club des petits gavroches</a><br>Adresse: 33 rue beaurepaire<br>cp: 75010
263;263;Municipal;bossuet;crèche collective;;creche;8 rue bossuet;75010;https://www.paris.fr/equipements/creche-collective-municipale-bossuet-2172;145262941;48.8785642;2.3523347;60;non;non;non;8;rue bossuet;rue;108;<a href=https://www.paris.fr/equipements/creche-collective-municipale-bossuet-2172>bossuet</a><br>Adresse: 8 rue bossuet<br>cp: 75010
264;264;Public;e.m.pu boy zelenski ;Ecole;0.0;maternelle;5 rue boy zelenski;75010;https://www.paris.fr/equipements/ecole-maternelle-boy-zelenski-625;142025719;48.876833;2.367886;180.0;non;non;non;5;rue boy zelenski;rue;105;<a href=https://www.paris.fr/equipements/ecole-maternelle-boy-zelenski-625>e.m.pu boy zelenski </a><br>Adresse: 5 rue boy zelenski<br>cp: 75010
265;265;Privé;möm louis blanc;;;creche;23 rue chaudron;75010;https://www.crechesmom.com/louis-blanc;;48.8833913;2.3650148;;non;non;non;23;rue chaudron;rue;123;<a href=https://www.crechesmom.com/louis-blanc>möm louis blanc</a><br>Adresse: 23 rue chaudron<br>cp: 75010
266;266;Municipal;hauteville;crèche collective;;creche;53 rue d'hauteville;75010;https://www.paris.fr/equipements/creche-collective-municipale-d-hauteville-2177;140220262;48.8745791;2.3506533;72;non;non;non;53;rue d'hauteville;rue;153;<a href=https://www.paris.fr/equipements/creche-collective-municipale-d-hauteville-2177>hauteville</a><br>Adresse: 53 rue d'hauteville<br>cp: 75010
267;267;Privé;e.p.pr bossuet-notre-dame (catholique);Ecole;1.0;maternelle;56 rue d'hauteville;75010;http://www.bossuetnotredame.org;145233404;48.8743846;2.3507341;311.0;non;non;catholique;56;rue d'hauteville;rue;156;<a href=http://www.bossuetnotredame.org>e.p.pr bossuet-notre-dame (catholique)</a><br>Adresse: 56 rue d'hauteville<br>cp: 75010
268;268;Privé;les petits ateliers d'eveil hauteville - paris 10;;;creche;21 rue d’hauteville;75010;http://lespetitsateliersdeveil.com;;48.8728057;2.3501673;;non;non;non;21;rue d’hauteville;rue;121;<a href=http://lespetitsateliersdeveil.com>les petits ateliers d'eveil hauteville - paris 10</a><br>Adresse: 21 rue d’hauteville<br>cp: 75010
269;269;Privé;chaperons les petites merveilles hauteville;;;creche;70 rue d’hauteville;75010;https://www.lpcr.fr/fr/creches/paris/515;;48.8755975;2.3510646;;non;non;non;70;rue d’hauteville;rue;170;<a href=https://www.lpcr.fr/fr/creches/paris/515>chaperons les petites merveilles hauteville</a><br>Adresse: 70 rue d’hauteville<br>cp: 75010
